$GPGGA,033631.396,3246.6269,N,11704.2313,W,2,10,1.1,139.1,M,-34.8,M,,0000*64
$GPVTG,171.6,T,,M,000.0,N,000.0,K,D*09
$GPGGA,033632.396,3246.6269,N,11704.2313,W,2,10,1.1,139.1,M,-34.8,M,,0000*67
$GPVTG,171.6,T,,M,000.0,N,000.0,K,D*09
$GPGGA,033633.396,3246.6269,N,11704.2314,W,2,10,1.1,139.0,M,-34.8,M,,0000*60
$GPVTG,171.6,T,,M,000.0,N,000.0,K,D*09
$GPGGA,033634.396,3246.6269,N,11704.2314,W,2,09,1.1,139.0,M,-34.8,M,,0000*6F
$GPVTG,171.6,T,,M,000.0,N,000.0,K,D*09
$GPGGA,033635.396,3246.6269,N,11704.2313,W,2,10,1.1,139.0,M,-34.8,M,,0000*61
$GPVTG,171.6,T,,M,000.0,N,000.0,K,D*09
$GPGGA,033636.396,3246.6269,N,11704.2313,W,2,09,1.1,139.0,M,-34.8,M,,0000*6A
$GPVTG,171.6,T,,M,000.0,N,000.0,K,D*09
$GPGGA,033637.396,3246.6269,N,11704.2313,W,2,09,1.1,139.0,M,-34.8,M,,0000*6B
$GPVTG,171.6,T,,M,000.0,N,000.0,K,D*09
$GPGGA,033638.396,3246.6269,N,11704.2313,W,2,08,1.2,139.1,M,-34.8,M,,0000*67
$GPVTG,171.6,T,,M,000.0,N,000.0,K,D*09
$GPGGA,033639.396,3246.6269,N,11704.2314,W,2,09,1.1,139.0,M,-34.8,M,,0000*62
$GPVTG,171.6,T,,M,000.0,N,000.0,K,D*09
$GPGGA,033640.396,3246.6269,N,11704.2314,W,2,09,1.1,139.0,M,-34.8,M,,0000*6C
$GPVTG,171.6,T,,M,000.0,N,000.0,K,D*09
$GPGGA,033641.396,3246.6269,N,11704.2314,W,2,09,1.1,139.0,M,-34.8,M,,0000*6D
$GPVTG,171.6,T,,M,000.0,N,000.0,K,D*09
$GPGGA,033642.396,3246.6269,N,11704.2314,W,2,10,1.1,138.9,M,-34.8,M,,0000*6E
$GPVTG,086.1,T,,M,000.8,N,001.5,K,D*0B
$GPGGA,033643.396,3246.6270,N,11704.2310,W,2,10,1.1,138.7,M,-34.8,M,,0000*6D
$GPVTG,068.1,T,,M,000.6,N,001.1,K,D*01
$GPGGA,033644.396,3246.6269,N,11704.2306,W,2,10,1.1,138.5,M,-34.8,M,,0000*67
$GPVTG,110.8,T,,M,000.7,N,001.2,K,D*04
$GPGGA,033645.396,3246.6270,N,11704.2303,W,2,10,1.1,138.3,M,-34.8,M,,0000*6D
$GPVTG,099.3,T,,M,000.8,N,001.4,K,D*06
$GPGGA,033646.396,3246.6270,N,11704.2299,W,2,10,1.1,137.7,M,-34.8,M,,0000*67
$GPVTG,099.3,T,,M,000.0,N,000.0,K,D*0B
$GPGGA,033647.396,3246.6270,N,11704.2296,W,2,10,1.1,137.5,M,-34.8,M,,0000*6B
$GPVTG,104.3,T,,M,000.9,N,001.6,K,D*00
$GPGGA,033648.396,3246.6271,N,11704.2287,W,2,09,1.1,137.8,M,-34.8,M,,0000*60
$GPVTG,074.2,T,,M,000.9,N,001.7,K,D*06
$GPGGA,033649.396,3246.6270,N,11704.2281,W,2,10,1.1,137.7,M,-34.8,M,,0000*61
$GPVTG,106.8,T,,M,000.8,N,001.4,K,D*0A
$GPGGA,033650.396,3246.6269,N,11704.2277,W,2,10,1.1,137.3,M,-34.8,M,,0000*6C
$GPVTG,104.0,T,,M,001.1,N,002.1,K,D*0E
$GPGGA,033651.396,3246.6267,N,11704.2272,W,2,10,1.1,137.2,M,-34.8,M,,0000*67
$GPVTG,105.7,T,,M,001.3,N,002.3,K,D*08
$GPGGA,033652.396,3246.6265,N,11704.2264,W,2,10,1.1,136.9,M,-34.8,M,,0000*6B
$GPVTG,117.8,T,,M,000.6,N,001.2,K,D*02
$GPGGA,033653.396,3246.6264,N,11704.2260,W,2,10,1.1,136.6,M,-34.8,M,,0000*60
$GPVTG,089.4,T,,M,000.6,N,001.0,K,D*0A
$GPGGA,033654.396,3246.6264,N,11704.2254,W,2,10,1.1,136.4,M,-34.8,M,,0000*62
$GPVTG,086.1,T,,M,000.7,N,001.3,K,D*02
$GPGGA,033655.396,3246.6266,N,11704.2246,W,2,10,1.1,136.4,M,-34.8,M,,0000*62
$GPVTG,085.8,T,,M,000.9,N,001.6,K,D*03
$GPGGA,033656.396,3246.6266,N,11704.2240,W,2,10,1.1,136.4,M,-34.8,M,,0000*67
$GPVTG,088.8,T,,M,001.3,N,002.4,K,D*04
$GPGGA,033657.396,3246.6266,N,11704.2233,W,2,10,1.1,135.7,M,-34.8,M,,0000*62
$GPVTG,123.0,T,,M,000.6,N,001.1,K,D*0E
$GPGGA,033658.396,3246.6265,N,11704.2228,W,2,10,1.1,135.5,M,-34.8,M,,0000*66
$GPVTG,077.3,T,,M,000.8,N,001.4,K,D*06
$GPGGA,033659.396,3246.6264,N,11704.2226,W,2,10,1.1,135.0,M,-34.8,M,,0000*6D
$GPVTG,082.4,T,,M,001.1,N,002.0,K,D*04
$GPGGA,033700.396,3246.6263,N,11704.2223,W,2,10,1.1,134.4,M,-34.8,M,,0000*67
$GPVTG,081.2,T,,M,001.2,N,002.3,K,D*01
$GPGGA,033701.396,3246.6263,N,11704.2220,W,2,10,1.1,133.8,M,-34.8,M,,0000*6E
$GPVTG,083.5,T,,M,001.4,N,002.5,K,D*04
$GPGGA,033702.396,3246.6262,N,11704.2214,W,2,10,1.1,133.6,M,-34.8,M,,0000*65
$GPVTG,083.5,T,,M,000.0,N,000.0,K,D*06
$GPGGA,033703.396,3246.6263,N,11704.2213,W,2,09,1.1,133.6,M,-34.8,M,,0000*6A
$GPVTG,091.1,T,,M,000.7,N,001.3,K,D*04
$GPGGA,033704.396,3246.6262,N,11704.2210,W,2,10,1.1,133.7,M,-34.8,M,,0000*66
$GPVTG,096.9,T,,M,000.9,N,001.7,K,D*01
$GPGGA,033705.396,3246.6262,N,11704.2200,W,2,10,1.1,133.7,M,-34.8,M,,0000*66
$GPVTG,090.6,T,,M,000.9,N,001.7,K,D*08
$GPGGA,033706.396,3246.6262,N,11704.2196,W,2,10,1.1,133.9,M,-34.8,M,,0000*67
$GPVTG,088.5,T,,M,001.1,N,002.0,K,D*0F
$GPGGA,033707.396,3246.6262,N,11704.2189,W,2,10,1.1,134.2,M,-34.8,M,,0000*64
$GPVTG,088.4,T,,M,000.7,N,001.3,K,D*09
$GPGGA,033708.396,3246.6262,N,11704.2183,W,2,10,1.1,134.7,M,-34.8,M,,0000*64
$GPVTG,050.8,T,,M,000.7,N,001.4,K,D*07
$GPGGA,033709.396,3246.6263,N,11704.2178,W,2,10,1.1,135.1,M,-34.8,M,,0000*67
$GPVTG,050.8,T,,M,000.0,N,000.0,K,D*05
$GPGGA,033710.396,3246.6263,N,11704.2174,W,2,10,1.1,135.7,M,-34.8,M,,0000*65
$GPVTG,076.0,T,,M,000.7,N,001.4,K,D*0B
$GPGGA,033711.396,3246.6263,N,11704.2169,W,2,10,1.1,135.6,M,-34.8,M,,0000*69
$GPVTG,108.6,T,,M,000.6,N,001.1,K,D*01
$GPGGA,033712.396,3246.6263,N,11704.2166,W,2,09,1.1,135.3,M,-34.8,M,,0000*68
$GPVTG,108.6,T,,M,000.0,N,000.0,K,D*07
$GPGGA,033713.396,3246.6263,N,11704.2165,W,2,10,1.1,135.3,M,-34.8,M,,0000*62
$GPVTG,108.6,T,,M,000.0,N,000.0,K,D*07
$GPGGA,033714.396,3246.6263,N,11704.2165,W,2,09,1.1,135.5,M,-34.8,M,,0000*6B
$GPVTG,088.0,T,,M,000.6,N,001.1,K,D*0E
$GPGGA,033715.396,3246.6264,N,11704.2162,W,2,09,1.1,135.2,M,-34.8,M,,0000*6D
$GPVTG,097.4,T,,M,000.8,N,001.4,K,D*0F
$GPGGA,033716.396,3246.6263,N,11704.2157,W,2,09,1.1,135.2,M,-34.8,M,,0000*6F
$GPVTG,104.1,T,,M,001.1,N,002.1,K,D*0F
$GPGGA,033717.396,3246.6262,N,11704.2149,W,2,10,1.1,135.8,M,-34.8,M,,0000*62
$GPVTG,082.4,T,,M,000.6,N,001.2,K,D*03
$GPGGA,033718.396,3246.6272,N,11704.2144,W,2,10,1.1,137.5,M,-34.8,M,,0000*6E
$GPVTG,027.3,T,,M,001.8,N,003.4,K,D*00
$GPGGA,033719.396,3246.6273,N,11704.2141,W,2,10,1.1,137.6,M,-34.8,M,,0000*68
$GPVTG,045.0,T,,M,001.5,N,002.8,K,D*07
$GPGGA,033720.396,3246.6275,N,11704.2136,W,2,10,1.1,137.3,M,-34.8,M,,0000*61
$GPVTG,059.3,T,,M,001.4,N,002.5,K,D*05
$GPGGA,033721.396,3246.6276,N,11704.2128,W,2,09,1.1,137.0,M,-34.8,M,,0000*67
$GPVTG,069.4,T,,M,001.6,N,002.9,K,D*0F
$GPGGA,033722.396,3246.6279,N,11704.2115,W,2,10,1.1,138.0,M,-34.8,M,,0000*62
$GPVTG,081.4,T,,M,000.7,N,001.4,K,D*07
$GPGGA,033723.396,3246.6281,N,11704.2108,W,2,10,1.1,138.7,M,-34.8,M,,0000*6F
$GPVTG,081.4,T,,M,000.0,N,000.0,K,D*05
$GPGGA,033724.396,3246.6281,N,11704.2105,W,2,10,1.1,138.8,M,-34.8,M,,0000*6A
$GPVTG,071.7,T,,M,000.9,N,001.7,K,D*06
$GPGGA,033725.396,3246.6282,N,11704.2098,W,2,10,1.1,138.4,M,-34.8,M,,0000*61
$GPVTG,071.7,T,,M,000.0,N,000.0,K,D*09
$GPGGA,033726.396,3246.6282,N,11704.2094,W,2,10,1.1,138.1,M,-34.8,M,,0000*6B
$GPVTG,082.1,T,,M,000.6,N,001.1,K,D*05
$GPGGA,033727.396,3246.6283,N,11704.2089,W,2,10,1.1,137.7,M,-34.8,M,,0000*6E
$GPVTG,082.1,T,,M,000.0,N,000.0,K,D*03
$GPGGA,033728.396,3246.6285,N,11704.2088,W,2,10,1.1,138.1,M,-34.8,M,,0000*6F
$GPVTG,056.7,T,,M,001.6,N,003.0,K,D*08
$GPGGA,033729.396,3246.6286,N,11704.2083,W,2,10,1.1,138.1,M,-34.8,M,,0000*66
$GPVTG,064.5,T,,M,001.5,N,002.9,K,D*00
$GPGGA,033730.396,3246.6288,N,11704.2072,W,2,10,1.1,138.7,M,-34.8,M,,0000*68
$GPVTG,080.1,T,,M,001.0,N,001.9,K,D*08
$GPGGA,033731.396,3246.6288,N,11704.2070,W,2,10,1.1,138.2,M,-34.8,M,,0000*6E
$GPVTG,081.5,T,,M,001.2,N,002.1,K,D*04
$GPGGA,033732.396,3246.6288,N,11704.2065,W,2,10,1.1,137.7,M,-34.8,M,,0000*63
$GPVTG,085.4,T,,M,001.2,N,002.2,K,D*02
$GPGGA,033733.396,3246.6289,N,11704.2058,W,2,10,1.1,137.4,M,-34.8,M,,0000*6E
$GPVTG,085.4,T,,M,000.0,N,000.0,K,D*01
$GPGGA,033734.396,3246.6288,N,11704.2053,W,2,10,1.1,137.4,M,-34.8,M,,0000*63
$GPVTG,077.7,T,,M,000.8,N,001.6,K,D*00
$GPGGA,033735.396,3246.6287,N,11704.2047,W,2,10,1.1,137.3,M,-34.8,M,,0000*6F
$GPVTG,100.1,T,,M,001.0,N,001.9,K,D*01
$GPGGA,033736.396,3246.6286,N,11704.2038,W,2,10,1.1,137.3,M,-34.8,M,,0000*65
$GPVTG,106.1,T,,M,000.6,N,001.1,K,D*08
$GPGGA,033737.396,3246.6285,N,11704.2030,W,2,10,1.1,137.4,M,-34.8,M,,0000*68
$GPVTG,091.8,T,,M,000.9,N,001.6,K,D*06
$GPGGA,033738.396,3246.6281,N,11704.2025,W,2,10,1.1,137.4,M,-34.8,M,,0000*67
$GPVTG,089.3,T,,M,001.0,N,001.9,K,D*03
$GPGGA,033739.396,3246.6281,N,11704.2021,W,2,10,1.1,137.4,M,-34.8,M,,0000*62
$GPVTG,067.6,T,,M,000.9,N,001.7,K,D*00
$GPGGA,033740.396,3246.6282,N,11704.2011,W,2,10,1.1,137.9,M,-34.8,M,,0000*61
$GPVTG,076.4,T,,M,000.9,N,001.6,K,D*03
$GPGGA,033741.396,3246.6282,N,11704.2006,W,2,10,1.1,138.4,M,-34.8,M,,0000*64
$GPVTG,076.4,T,,M,000.0,N,000.0,K,D*0D
$GPGGA,033742.396,3246.6281,N,11704.2004,W,2,10,1.1,138.7,M,-34.8,M,,0000*65
$GPVTG,100.5,T,,M,000.7,N,001.3,K,D*09
$GPGGA,033743.396,3246.6279,N,11704.2000,W,2,10,1.1,138.6,M,-34.8,M,,0000*66
$GPVTG,100.5,T,,M,000.0,N,000.0,K,D*0C
$GPGGA,033744.396,3246.6280,N,11704.1998,W,2,10,1.1,138.7,M,-34.8,M,,0000*6D
$GPVTG,100.5,T,,M,000.0,N,000.0,K,D*0C
$GPGGA,033745.396,3246.6279,N,11704.1997,W,2,10,1.1,138.5,M,-34.8,M,,0000*67
$GPVTG,100.5,T,,M,000.0,N,000.0,K,D*0C
$GPGGA,033746.396,3246.6279,N,11704.1995,W,2,10,1.1,137.9,M,-34.8,M,,0000*65
$GPVTG,100.5,T,,M,000.0,N,000.0,K,D*0C
$GPGGA,033747.396,3246.6274,N,11704.1985,W,2,10,1.1,138.1,M,-34.8,M,,0000*6F
$GPVTG,100.5,T,,M,000.0,N,000.0,K,D*0C
$GPGGA,033748.396,3246.6270,N,11704.1979,W,2,10,1.1,137.6,M,-34.8,M,,0000*6F
$GPVTG,100.5,T,,M,000.0,N,000.0,K,D*0C
$GPGGA,033749.396,3246.6264,N,11704.1968,W,2,10,1.1,137.6,M,-34.8,M,,0000*6B
$GPVTG,100.5,T,,M,000.0,N,000.0,K,D*0C
$GPGGA,033750.396,3246.6261,N,11704.1964,W,2,10,1.1,137.2,M,-34.8,M,,0000*6E
$GPVTG,100.5,T,,M,000.0,N,000.0,K,D*0C
$GPGGA,033751.396,3246.6257,N,11704.1960,W,2,10,1.1,136.8,M,-34.8,M,,0000*65
$GPVTG,100.5,T,,M,000.0,N,000.0,K,D*0C
$GPGGA,033752.396,3246.6255,N,11704.1958,W,2,10,1.1,136.5,M,-34.8,M,,0000*62
$GPVTG,100.5,T,,M,000.0,N,000.0,K,D*0C
$GPGGA,033753.396,3246.6251,N,11704.1955,W,2,10,1.1,136.0,M,-34.8,M,,0000*6F
$GPVTG,100.5,T,,M,000.0,N,000.0,K,D*0C
$GPGGA,033754.396,3246.6249,N,11704.1953,W,2,10,1.1,135.8,M,-34.8,M,,0000*6C
$GPVTG,100.5,T,,M,000.0,N,000.0,K,D*0C
$GPGGA,033755.396,3246.6247,N,11704.1952,W,2,09,1.2,135.8,M,-34.8,M,,0000*69
$GPVTG,100.5,T,,M,000.0,N,000.0,K,D*0C
$GPGGA,033756.396,3246.6245,N,11704.1949,W,2,10,1.1,135.8,M,-34.8,M,,0000*69
$GPVTG,100.5,T,,M,000.0,N,000.0,K,D*0C
$GPGGA,033757.396,3246.6244,N,11704.1948,W,2,10,1.1,135.8,M,-34.8,M,,0000*68
$GPVTG,100.5,T,,M,000.0,N,000.0,K,D*0C
$GPGGA,033758.396,3246.6242,N,11704.1946,W,1,09,1.1,135.8,M,-34.8,M,,0000*64
$GPVTG,100.5,T,,M,000.0,N,000.0,K,A*09
$GPGGA,033759.396,3246.6242,N,11704.1946,W,1,09,1.1,135.8,M,-34.8,M,,0000*65
$GPVTG,100.5,T,,M,000.0,N,000.0,K,A*09
$GPGGA,033800.396,3246.6241,N,11704.1945,W,1,09,1.1,135.9,M,-34.8,M,,0000*67
$GPVTG,100.5,T,,M,000.0,N,000.0,K,A*09
$GPGGA,033801.396,3246.6241,N,11704.1945,W,1,09,1.1,135.9,M,-34.8,M,,0000*66
$GPVTG,100.5,T,,M,000.0,N,000.0,K,A*09
$GPGGA,033802.396,3246.6241,N,11704.1945,W,1,09,1.1,135.9,M,-34.8,M,,0000*65
$GPVTG,100.5,T,,M,000.0,N,000.0,K,A*09
$GPGGA,033803.396,3246.6241,N,11704.1946,W,1,09,1.1,136.0,M,-34.8,M,,0000*6D
$GPVTG,100.5,T,,M,000.0,N,000.0,K,A*09
$GPGGA,033804.396,3246.6241,N,11704.1945,W,1,09,1.1,136.1,M,-34.8,M,,0000*68
$GPVTG,100.5,T,,M,000.0,N,000.0,K,A*09
