$GPGGA,034328.397,3246.6431,N,11704.2306,W,1,09,1.1,133.6,M,-34.8,M,,0000*66
$GPVTG,046.7,T,,M,000.0,N,000.0,K,A*08
$GPGGA,034329.397,3246.6431,N,11704.2306,W,1,09,1.1,133.6,M,-34.8,M,,0000*67
$GPVTG,046.7,T,,M,000.0,N,000.0,K,A*08
$GPGGA,034330.397,3246.6431,N,11704.2306,W,1,09,1.1,133.6,M,-34.8,M,,0000*6F
$GPVTG,046.7,T,,M,000.0,N,000.0,K,A*08
$GPGGA,034331.397,3246.6431,N,11704.2306,W,1,09,1.1,133.7,M,-34.8,M,,0000*6F
$GPVTG,046.7,T,,M,000.0,N,000.0,K,A*08
$GPGGA,034332.397,3246.6431,N,11704.2306,W,1,09,1.1,133.7,M,-34.8,M,,0000*6C
$GPVTG,046.7,T,,M,000.0,N,000.0,K,A*08
$GPGGA,034333.397,3246.6431,N,11704.2306,W,1,09,1.1,133.7,M,-34.8,M,,0000*6D
$GPVTG,093.7,T,,M,000.7,N,001.2,K,A*04
$GPGGA,034334.397,3246.6430,N,11704.2302,W,1,09,1.1,133.2,M,-34.8,M,,0000*6A
$GPVTG,112.9,T,,M,001.5,N,002.9,K,A*09
$GPGGA,034335.397,3246.6432,N,11704.2296,W,1,09,1.1,133.1,M,-34.8,M,,0000*66
$GPVTG,089.3,T,,M,001.6,N,002.9,K,A*03
$GPGGA,034336.397,3246.6432,N,11704.2290,W,1,09,1.1,133.1,M,-34.8,M,,0000*63
$GPVTG,091.3,T,,M,001.6,N,003.0,K,A*02
$GPGGA,034337.397,3246.6432,N,11704.2284,W,1,09,1.1,133.0,M,-34.8,M,,0000*66
$GPVTG,092.0,T,,M,001.6,N,003.0,K,A*02
$GPGGA,034338.397,3246.6433,N,11704.2278,W,1,09,1.1,133.3,M,-34.8,M,,0000*68
$GPVTG,089.6,T,,M,001.6,N,003.0,K,A*0E
$GPGGA,034339.397,3246.6433,N,11704.2274,W,1,09,1.1,133.1,M,-34.8,M,,0000*67
$GPVTG,086.2,T,,M,001.4,N,002.7,K,A*01
$GPGGA,034340.397,3246.6434,N,11704.2268,W,1,09,1.1,133.2,M,-34.8,M,,0000*60
$GPVTG,086.3,T,,M,001.6,N,002.9,K,A*0C
$GPGGA,034341.397,3246.6433,N,11704.2263,W,1,09,1.1,133.7,M,-34.8,M,,0000*68
$GPVTG,091.3,T,,M,001.5,N,002.9,K,A*09
$GPGGA,034342.397,3246.6434,N,11704.2256,W,1,09,1.1,133.9,M,-34.8,M,,0000*64
$GPVTG,089.3,T,,M,001.6,N,003.0,K,A*0B
$GPGGA,034343.397,3246.6434,N,11704.2251,W,1,09,1.1,133.8,M,-34.8,M,,0000*63
$GPVTG,088.9,T,,M,001.6,N,003.0,K,A*00
$GPGGA,034344.397,3246.6434,N,11704.2243,W,1,09,1.1,133.5,M,-34.8,M,,0000*6A
$GPVTG,088.9,T,,M,000.0,N,000.0,K,A*04
$GPGGA,034345.397,3246.6437,N,11704.2239,W,1,09,1.1,133.9,M,-34.8,M,,0000*69
$GPVTG,092.1,T,,M,001.0,N,001.9,K,A*0E
$GPGGA,034346.397,3246.6436,N,11704.2234,W,1,09,1.1,134.5,M,-34.8,M,,0000*6D
$GPVTG,092.1,T,,M,000.0,N,000.0,K,A*07
$GPGGA,034347.397,3246.6438,N,11704.2227,W,1,09,1.1,134.4,M,-34.8,M,,0000*61
$GPVTG,086.6,T,,M,001.1,N,002.1,K,A*06
$GPGGA,034348.397,3246.6441,N,11704.2219,W,1,09,1.1,134.2,M,-34.8,M,,0000*6B
$GPVTG,087.1,T,,M,001.3,N,002.5,K,A*06
$GPGGA,034349.397,3246.6441,N,11704.2208,W,1,09,1.1,134.6,M,-34.8,M,,0000*6E
$GPVTG,094.1,T,,M,000.7,N,001.4,K,A*03
$GPGGA,034350.397,3246.6440,N,11704.2200,W,1,09,1.1,134.5,M,-34.8,M,,0000*6C
$GPVTG,094.3,T,,M,001.3,N,002.3,K,A*00
$GPGGA,034351.397,3246.6439,N,11704.2190,W,1,09,1.1,135.0,M,-34.8,M,,0000*6D
$GPVTG,103.6,T,,M,001.0,N,001.8,K,A*01
$GPGGA,034352.397,3246.6438,N,11704.2185,W,1,09,1.1,135.4,M,-34.8,M,,0000*6F
$GPVTG,100.7,T,,M,001.1,N,002.0,K,A*09
$GPGGA,034353.397,3246.6438,N,11704.2183,W,1,09,1.1,135.9,M,-34.8,M,,0000*65
$GPVTG,079.8,T,,M,000.8,N,001.4,K,A*06
$GPGGA,034354.397,3246.6434,N,11704.2176,W,1,09,1.1,137.4,M,-34.8,M,,0000*6B
$GPVTG,098.1,T,,M,000.9,N,001.6,K,A*03
$GPGGA,034355.397,3246.6434,N,11704.2172,W,1,09,1.1,137.6,M,-34.8,M,,0000*6C
$GPVTG,097.5,T,,M,001.2,N,002.2,K,A*05
$GPGGA,034356.397,3246.6435,N,11704.2166,W,1,09,1.1,137.6,M,-34.8,M,,0000*6B
$GPVTG,089.1,T,,M,001.5,N,002.8,K,A*03
$GPGGA,034357.397,3246.6438,N,11704.2156,W,1,09,1.1,137.7,M,-34.8,M,,0000*65
$GPVTG,089.1,T,,M,000.0,N,000.0,K,A*0D
$GPGGA,034358.397,3246.6437,N,11704.2154,W,1,09,1.1,138.7,M,-34.8,M,,0000*68
$GPVTG,082.6,T,,M,000.9,N,001.6,K,A*0F
$GPGGA,034359.397,3246.6439,N,11704.2148,W,1,09,1.1,139.7,M,-34.8,M,,0000*6B
$GPVTG,088.0,T,,M,001.0,N,001.9,K,A*04
$GPGGA,034400.397,3246.6447,N,11704.2136,W,1,09,1.1,139.3,M,-34.8,M,,0000*64
$GPVTG,078.1,T,,M,000.7,N,001.4,K,A*01
$GPGGA,034401.397,3246.6449,N,11704.2128,W,1,09,1.1,138.2,M,-34.8,M,,0000*64
$GPVTG,078.1,T,,M,000.0,N,000.0,K,A*03
$GPGGA,034402.397,3246.6451,N,11704.2124,W,1,09,1.1,138.2,M,-34.8,M,,0000*62
$GPVTG,078.1,T,,M,000.0,N,000.0,K,A*03
$GPGGA,034403.397,3246.6452,N,11704.2122,W,1,09,1.1,138.1,M,-34.8,M,,0000*65
$GPVTG,078.1,T,,M,000.0,N,000.0,K,A*03
$GPGGA,034404.397,3246.6453,N,11704.2119,W,1,09,1.1,138.1,M,-34.8,M,,0000*6B
$GPVTG,078.1,T,,M,000.0,N,000.0,K,A*03
$GPGGA,034405.397,3246.6454,N,11704.2117,W,1,09,1.1,138.2,M,-34.8,M,,0000*60
$GPVTG,078.1,T,,M,000.0,N,000.0,K,A*03
$GPGGA,034406.397,3246.6454,N,11704.2117,W,1,09,1.1,137.9,M,-34.8,M,,0000*67
$GPVTG,078.1,T,,M,000.0,N,000.0,K,A*03
$GPGGA,034407.397,3246.6453,N,11704.2117,W,1,08,1.2,137.6,M,-34.8,M,,0000*6C
$GPVTG,078.1,T,,M,000.0,N,000.0,K,A*03
$GPGGA,034408.397,3246.6453,N,11704.2117,W,1,09,1.1,137.0,M,-34.8,M,,0000*67
$GPVTG,078.1,T,,M,000.0,N,000.0,K,A*03
$GPGGA,034409.397,3246.6451,N,11704.2116,W,1,09,1.1,136.5,M,-34.8,M,,0000*61
$GPVTG,078.1,T,,M,000.0,N,000.0,K,A*03
$GPGGA,034410.397,3246.6451,N,11704.2117,W,1,09,1.1,136.0,M,-34.8,M,,0000*6D
$GPVTG,078.1,T,,M,000.0,N,000.0,K,A*03
$GPGGA,034411.397,3246.6450,N,11704.2117,W,1,09,1.1,135.3,M,-34.8,M,,0000*6D
$GPVTG,078.1,T,,M,000.0,N,000.0,K,A*03
$GPGGA,034412.397,3246.6446,N,11704.2118,W,1,09,1.1,134.6,M,-34.8,M,,0000*62
$GPVTG,078.1,T,,M,000.0,N,000.0,K,A*03
$GPGGA,034413.397,3246.6443,N,11704.2118,W,1,09,1.1,134.1,M,-34.8,M,,0000*61
$GPVTG,078.1,T,,M,000.0,N,000.0,K,A*03
$GPGGA,034414.397,3246.6441,N,11704.2120,W,1,09,1.1,133.5,M,-34.8,M,,0000*6C
$GPVTG,078.1,T,,M,000.0,N,000.0,K,A*03
$GPGGA,034415.397,3246.6440,N,11704.2120,W,1,09,1.1,133.5,M,-34.8,M,,0000*6C
$GPVTG,078.1,T,,M,000.0,N,000.0,K,A*03
$GPGGA,034416.397,3246.6439,N,11704.2119,W,1,09,1.1,133.5,M,-34.8,M,,0000*6B
$GPVTG,100.7,T,,M,000.6,N,001.1,K,A*0D
$GPGGA,034417.397,3246.6437,N,11704.2116,W,1,09,1.1,133.2,M,-34.8,M,,0000*6C
$GPVTG,089.9,T,,M,001.2,N,002.1,K,A*05
$GPGGA,034418.397,3246.6437,N,11704.2108,W,1,09,1.1,132.9,M,-34.8,M,,0000*66
$GPVTG,091.8,T,,M,001.0,N,001.8,K,A*05
$GPGGA,034419.397,3246.6436,N,11704.2101,W,1,09,1.1,132.5,M,-34.8,M,,0000*63
$GPVTG,092.1,T,,M,000.9,N,001.8,K,A*07
$GPGGA,034420.397,3246.6436,N,11704.2097,W,1,09,1.1,131.9,M,-34.8,M,,0000*68
$GPVTG,095.2,T,,M,001.1,N,002.0,K,A*01
$GPGGA,034421.397,3246.6435,N,11704.2090,W,1,09,1.1,132.3,M,-34.8,M,,0000*64
$GPVTG,094.4,T,,M,001.3,N,002.4,K,A*00
$GPGGA,034422.397,3246.6435,N,11704.2084,W,1,08,1.2,132.3,M,-34.8,M,,0000*60
$GPVTG,094.4,T,,M,000.0,N,000.0,K,A*04
$GPGGA,034423.397,3246.6433,N,11704.2081,W,1,08,1.2,132.5,M,-34.8,M,,0000*64
$GPVTG,115.1,T,,M,000.9,N,001.6,K,A*07
$GPGGA,034424.397,3246.6428,N,11704.2077,W,1,08,1.2,132.2,M,-34.8,M,,0000*67
$GPVTG,118.1,T,,M,000.6,N,001.0,K,A*03
$GPGGA,034425.397,3246.6424,N,11704.2073,W,1,08,1.2,132.1,M,-34.8,M,,0000*6D
$GPVTG,127.9,T,,M,000.9,N,001.7,K,A*0F
$GPGGA,034426.397,3246.6422,N,11704.2068,W,1,08,1.2,131.5,M,-34.8,M,,0000*65
$GPVTG,127.9,T,,M,000.0,N,000.0,K,A*00
$GPGGA,034427.397,3246.6423,N,11704.2067,W,1,08,1.2,131.1,M,-34.8,M,,0000*6E
$GPVTG,127.9,T,,M,000.0,N,000.0,K,A*00
$GPGGA,034428.397,3246.6422,N,11704.2068,W,1,08,1.2,130.7,M,-34.8,M,,0000*68
$GPVTG,127.9,T,,M,000.0,N,000.0,K,A*00
$GPGGA,034429.397,3246.6421,N,11704.2068,W,1,08,1.2,130.6,M,-34.8,M,,0000*6B
$GPVTG,127.9,T,,M,000.0,N,000.0,K,A*00
$GPGGA,034430.397,3246.6420,N,11704.2069,W,1,08,1.2,130.4,M,-34.8,M,,0000*61
$GPVTG,127.9,T,,M,000.0,N,000.0,K,A*00
$GPGGA,034431.397,3246.6420,N,11704.2069,W,1,08,1.2,130.0,M,-34.8,M,,0000*64
$GPVTG,127.9,T,,M,000.0,N,000.0,K,A*00
$GPGGA,034432.397,3246.6419,N,11704.2070,W,1,08,1.2,129.6,M,-34.8,M,,0000*6B
$GPVTG,127.9,T,,M,000.0,N,000.0,K,A*00
$GPGGA,034433.397,3246.6418,N,11704.2070,W,1,08,1.2,129.6,M,-34.8,M,,0000*6B
$GPVTG,127.9,T,,M,000.0,N,000.0,K,A*00
$GPGGA,034434.397,3246.6419,N,11704.2070,W,1,08,1.2,129.5,M,-34.8,M,,0000*6E
$GPVTG,127.9,T,,M,000.0,N,000.0,K,A*00
$GPGGA,034435.397,3246.6419,N,11704.2071,W,1,08,1.2,129.6,M,-34.8,M,,0000*6D
$GPVTG,127.9,T,,M,000.0,N,000.0,K,A*00
$GPGGA,034436.397,3246.6419,N,11704.2072,W,1,07,1.2,129.6,M,-34.8,M,,0000*62
$GPVTG,127.9,T,,M,000.0,N,000.0,K,A*00
$GPGGA,034437.397,3246.6418,N,11704.207
