$GPGGA,034652.397,3246.6266,N,11704.1970,W,1,10,0.9,136.0,M,-34.8,M,,0000*60
$GPVTG,126.4,T,,M,000.0,N,000.0,K,A*0C
$GPGGA,034653.397,3246.6265,N,11704.1971,W,1,10,0.9,136.0,M,-34.8,M,,0000*63
$GPVTG,126.4,T,,M,000.0,N,000.0,K,A*0C
$GPGGA,034654.397,3246.6265,N,11704.1971,W,1,10,0.9,136.0,M,-34.8,M,,0000*64
$GPVTG,126.4,T,,M,000.0,N,000.0,K,A*0C
$GPGGA,034655.397,3246.6265,N,11704.1971,W,1,10,0.9,135.7,M,-34.8,M,,0000*61
$GPVTG,126.4,T,,M,000.0,N,000.0,K,A*0C
$GPGGA,034656.397,3246.6264,N,11704.1972,W,1,10,0.9,135.6,M,-34.8,M,,0000*61
$GPVTG,126.4,T,,M,000.0,N,000.0,K,A*0C
$GPGGA,034657.397,3246.6264,N,11704.1972,W,1,10,0.9,135.6,M,-34.8,M,,0000*60
$GPVTG,126.4,T,,M,000.0,N,000.0,K,A*0C
$GPGGA,034658.397,3246.6264,N,11704.1972,W,1,10,0.9,135.7,M,-34.8,M,,0000*6E
$GPVTG,126.4,T,,M,000.0,N,000.0,K,A*0C
$GPGGA,034659.397,3246.6264,N,11704.1972,W,1,10,0.9,135.8,M,-34.8,M,,0000*60
$GPVTG,327.3,T,,M,000.6,N,001.1,K,A*0E
$GPGGA,034700.397,3246.6265,N,11704.1974,W,1,10,0.9,135.9,M,-34.8,M,,0000*6B
$GPVTG,293.9,T,,M,000.9,N,001.6,K,A*02
$GPGGA,034701.397,3246.6266,N,11704.1978,W,1,10,0.9,135.6,M,-34.8,M,,0000*6A
$GPVTG,282.9,T,,M,001.0,N,001.8,K,A*04
$GPGGA,034702.397,3246.6268,N,11704.1982,W,1,10,0.9,135.8,M,-34.8,M,,0000*6C
$GPVTG,324.5,T,,M,000.6,N,001.0,K,A*0A
$GPGGA,034703.397,3246.6272,N,11704.1985,W,1,10,0.9,136.4,M,-34.8,M,,0000*6E
$GPVTG,323.9,T,,M,001.1,N,002.1,K,A*05
$GPGGA,034704.397,3246.6269,N,11704.1992,W,1,10,0.9,139.2,M,-34.8,M,,0000*6C
$GPVTG,323.9,T,,M,000.0,N,000.0,K,A*06
$GPGGA,034705.397,3246.6271,N,11704.1995,W,1,10,0.9,139.2,M,-34.8,M,,0000*63
$GPVTG,306.6,T,,M,000.9,N,001.6,K,A*00
$GPGGA,034706.397,3246.6271,N,11704.1996,W,1,10,0.9,139.3,M,-34.8,M,,0000*62
$GPVTG,293.7,T,,M,000.7,N,001.2,K,A*06
$GPGGA,034707.397,3246.6272,N,11704.1998,W,1,10,0.9,139.2,M,-34.8,M,,0000*6F
$GPVTG,293.7,T,,M,000.0,N,000.0,K,A*02
$GPGGA,034708.397,3246.6273,N,11704.2000,W,1,10,0.9,138.9,M,-34.8,M,,0000*60
$GPVTG,293.7,T,,M,000.0,N,000.0,K,A*02
$GPGGA,034709.397,3246.6273,N,11704.2002,W,1,09,0.9,138.6,M,-34.8,M,,0000*64
$GPVTG,278.9,T,,M,000.6,N,001.0,K,A*0E
$GPGGA,034710.397,3246.6274,N,11704.2005,W,1,09,0.9,138.6,M,-34.8,M,,0000*6C
$GPVTG,278.9,T,,M,000.0,N,000.0,K,A*09
$GPGGA,034711.397,3246.6274,N,11704.2006,W,1,09,0.9,138.5,M,-34.8,M,,0000*6D
$GPVTG,291.2,T,,M,000.6,N,001.1,K,A*03
$GPGGA,034712.397,3246.6276,N,11704.2010,W,1,09,0.9,138.7,M,-34.8,M,,0000*69
$GPVTG,286.5,T,,M,001.1,N,002.0,K,A*06
$GPGGA,034713.397,3246.6278,N,11704.2016,W,1,09,0.9,138.1,M,-34.8,M,,0000*66
$GPVTG,292.9,T,,M,001.0,N,001.9,K,A*04
$GPGGA,034714.397,3246.6280,N,11704.2022,W,1,09,0.9,138.0,M,-34.8,M,,0000*60
$GPVTG,291.5,T,,M,001.2,N,002.2,K,A*01
$GPGGA,034715.397,3246.6284,N,11704.2028,W,1,09,0.9,137.8,M,-34.8,M,,0000*68
$GPVTG,318.0,T,,M,000.5,N,001.0,K,A*03
$GPGGA,034716.397,3246.6284,N,11704.2031,W,1,10,0.9,136.6,M,-34.8,M,,0000*64
$GPVTG,318.0,T,,M,000.0,N,000.0,K,A*07
$GPGGA,034717.397,3246.6282,N,11704.2032,W,1,10,0.9,137.4,M,-34.8,M,,0000*63
$GPVTG,318.0,T,,M,000.0,N,000.0,K,A*07
$GPGGA,034718.397,3246.6281,N,11704.2035,W,1,10,0.9,137.6,M,-34.8,M,,0000*6A
$GPVTG,318.0,T,,M,000.0,N,000.0,K,A*07
$GPGGA,034719.397,3246.6279,N,11704.2042,W,1,10,0.9,138.3,M,-34.8,M,,0000*66
$GPVTG,318.0,T,,M,000.0,N,000.0,K,A*07
$GPGGA,034720.397,3246.6281,N,11704.2046,W,1,09,0.9,138.1,M,-34.8,M,,0000*65
$GPVTG,300.9,T,,M,000.6,N,001.1,K,A*01
$GPGGA,034721.397,3246.6280,N,11704.2051,W,1,09,0.9,138.2,M,-34.8,M,,0000*60
$GPVTG,300.9,T,,M,000.0,N,000.0,K,A*07
$GPGGA,034722.397,3246.6280,N,11704.2053,W,1,09,0.9,138.5,M,-34.8,M,,0000*66
$GPVTG,300.9,T,,M,000.0,N,000.0,K,A*07
$GPGGA,034723.397,3246.6280,N,11704.2054,W,1,10,0.9,138.5,M,-34.8,M,,0000*68
$GPVTG,272.7,T,,M,000.6,N,001.1,K,A*0B
$GPGGA,034724.397,3246.6281,N,11704.2059,W,1,09,0.9,138.4,M,-34.8,M,,0000*6A
$GPVTG,284.6,T,,M,001.0,N,001.9,K,A*0C
$GPGGA,034725.397,3246.6283,N,11704.2064,W,1,09,0.9,139.2,M,-34.8,M,,0000*60
$GPVTG,284.6,T,,M,000.0,N,000.0,K,A*05
$GPGGA,034726.397,3246.6284,N,11704.2065,W,1,09,0.9,138.7,M,-34.8,M,,0000*61
$GPVTG,269.4,T,,M,000.7,N,001.3,K,A*01
$GPGGA,034727.397,3246.6284,N,11704.2068,W,1,09,0.9,138.4,M,-34.8,M,,0000*6E
$GPVTG,253.3,T,,M,000.7,N,001.4,K,A*08
$GPGGA,034728.397,3246.6282,N,11704.2074,W,1,09,0.9,139.3,M,-34.8,M,,0000*6C
$GPVTG,253.3,T,,M,000.0,N,000.0,K,A*0A
$GPGGA,034729.397,3246.6282,N,11704.2077,W,1,09,0.9,139.4,M,-34.8,M,,0000*69
$GPVTG,275.0,T,,M,001.0,N,001.8,K,A*05
$GPGGA,034730.397,3246.6280,N,11704.2086,W,1,09,0.9,139.3,M,-34.8,M,,0000*6A
$GPVTG,275.0,T,,M,000.0,N,000.0,K,A*0D
$GPGGA,034731.397,3246.6279,N,11704.2089,W,1,09,0.9,138.9,M,-34.8,M,,0000*69
$GPVTG,254.2,T,,M,000.6,N,001.1,K,A*0A
$GPGGA,034732.397,3246.6279,N,11704.2096,W,1,09,0.9,139.2,M,-34.8,M,,0000*6E
$GPVTG,254.2,T,,M,000.0,N,000.0,K,A*0C
$GPGGA,034733.397,3246.6280,N,11704.2099,W,1,09,0.9,138.7,M,-34.8,M,,0000*62
$GPVTG,286.1,T,,M,000.6,N,001.0,K,A*07
$GPGGA,034734.397,3246.6280,N,11704.2107,W,1,09,0.9,139.0,M,-34.8,M,,0000*65
$GPVTG,310.5,T,,M,000.8,N,001.5,K,A*06
$GPGGA,034735.397,3246.6277,N,11704.2116,W,1,09,0.9,137.8,M,-34.8,M,,0000*6A
$GPVTG,310.5,T,,M,000.0,N,000.0,K,A*0A
$GPGGA,034736.397,3246.6278,N,11704.2118,W,1,09,0.9,137.7,M,-34.8,M,,0000*67
$GPVTG,310.5,T,,M,000.0,N,000.0,K,A*0A
$GPGGA,034737.397,3246.6279,N,11704.2122,W,1,09,0.9,138.7,M,-34.8,M,,0000*61
$GPVTG,310.5,T,,M,000.0,N,000.0,K,A*0A
$GPGGA,034738.397,3246.6281,N,11704.2125,W,1,09,0.9,138.6,M,-34.8,M,,0000*6F
$GPVTG,292.7,T,,M,000.7,N,001.3,K,A*06
$GPGGA,034739.397,3246.6279,N,11704.2131,W,1,09,0.9,139.3,M,-34.8,M,,0000*68
$GPVTG,273.3,T,,M,001.0,N,001.8,K,A*00
$GPGGA,034740.397,3246.6278,N,11704.2140,W,1,09,0.9,139.4,M,-34.8,M,,0000*66
$GPVTG,269.3,T,,M,000.6,N,001.0,K,A*04
$GPGGA,034741.397,3246.6275,N,11704.2145,W,1,09,0.9,138.9,M,-34.8,M,,0000*63
$GPVTG,272.9,T,,M,000.9,N,001.6,K,A*0D
$GPGGA,034742.397,3246.6275,N,11704.2154,W,1,09,0.9,139.2,M,-34.8,M,,0000*6A
$GPVTG,269.0,T,,M,000.7,N,001.3,K,A*05
$GPGGA,034743.397,3246.6275,N,11704.2163,W,1,09,0.9,138.9,M,-34.8,M,,0000*65
$GPVTG,269.6,T,,M,000.9,N,001.6,K,A*08
$GPGGA,034744.397,3246.6273,N,11704.2171,W,1,09,0.9,139.7,M,-34.8,M,,0000*68
$GPVTG,249.4,T,,M,001.0,N,001.8,K,A*0E
$GPGGA,034745.397,3246.6271,N,11704.2181,W,1,09,0.9,139.9,M,-34.8,M,,0000*6A
$GPVTG,278.1,T,,M,000.9,N,001.6,K,A*0F
$GPGGA,034746.397,3246.6273,N,11704.2188,W,1,09,0.9,140.0,M,-34.8,M,,0000*65
$GPVTG,278.8,T,,M,001.5,N,002.8,K,A*06
$GPGGA,034747.397,3246.6275,N,11704.2197,W,1,09,0.9,138.8,M,-34.8,M,,0000*6B
$GPVTG,278.8,T,,M,000.0,N,000.0,K,A*08
$GPGGA,034748.397,3246.6275,N,11704.2200,W,1,09,0.9,139.4,M,-34.8,M,,0000*64
$GPVTG,278.8,T,,M,000.0,N,000.0,K,A*08
$GPGGA,034749.397,3246.6276,N,11704.2201,W,1,09,0.9,139.6,M,-34.8,M,,0000*65
$GPVTG,274.3,T,,M,000.8,N,001.4,K,A*02
$GPGGA,034750.397,3246.6276,N,11704.2209,W,1,09,0.9,139.1,M,-34.8,M,,0000*62
$GPVTG,274.3,T,,M,000.0,N,000.0,K,A*0F
$GPGGA,034751.397,3246.6277,N,11704.2213,W,1,09,0.9,138.4,M,-34.8,M,,0000*6D
$GPVTG,274.3,T,,M,000.0,N,000.0,K,A*0F
$GPGGA,034752.397,3246.6279,N,11704.2218,W,1,09,0.9,138.1,M,-34.8,M,,0000*6E
$GPVTG,274.3,T,,M,000.0,N,000.0,K,A*0F
$GPGGA,034753.397,3246.6279,N,11704.2221,W,1,09,0.9,138.2,M,-34.8,M,,0000*66
$GPVTG,271.2,T,,M,000.8,N,001.5,K,A*07
$GPGGA,034754.397,3246.6277,N,11704.2228,W,1,09,0.9,138.8,M,-34.8,M,,0000*6C
$GPVTG,269.1,T,,M,000.8,N,001.5,K,A*0D
$GPGGA,034755.397,3246.6273,N,11704.2231,W,1,09,0.9,138.7,M,-34.8,M,,0000*6E
$GPVTG,269.1,T,,M,000.0,N,000.0,K,A*01
$GPGGA,034756.397,3246.6274,N,11704.2235,W,1,09,0.9,138.3,M,-34.8,M,,0000*6A
$GPVTG,269.1,T,,M,000.0,N,000.0,K,A*01
$GPGGA,034757.397,3246.6274,N,11704.2239,W,1,09,0.9,137.7,M,-34.8,M,,0000*6C
$GPVTG,269.1,T,,M,000.0,N,000.0,K,A*01
$GPGGA,034758.397,3246.6274,N,11704.2243,W,1,09,0.9,137.2,M,-34.8,M,,0000*6B
$GPVTG,269.1,T,,M,000.0,N,000.0,K,A*01
$GPGGA,034759.397,3246.6271,N,11704.2247,W,1,09,0.9,137.9,M,-34.8,M,,0000*60
$GPVTG,294.2,T,,M,000.6,N,001.1,K,A*06
$GPGGA,034800.397,3246.6273,N,11704.2254,W,1,09,0.9,137.2,M,-34.8,M,,0000*68
$GPVTG,294.2,T,,M,000.0,N,000.0,K,A*00
$GPGGA,034801.397,3246.6273,N,11704.2256,W,1,09,0.9,137.0,M,-34.8,M,,0000*69
$GPVTG,294.2,T,,M,000.0,N,000.0,K,A*00
$GPGGA,034802.397,3246.6272,N,11704.2259,W,1,09,0.9,137.1,M,-34.8,M,,0000*65
$GPVTG,294.2,T,,M,000.0,N,000.0,K,A*00
$GPGGA,034803.397,3246.6272,N,11704.2260,W,1,09,0.9,136.9,M,-34.8,M,,0000*67
$GPVTG,294.2,T,,M,000.0,N,000.0,K,A*00
$GPGGA,034804.397,3246.6272,N,11704.2262,W,1,09,0.9,136.5,M,-34.8,M,,0000*6E
$GPVTG,294.2,T,,M,000.0,N,000.0,K,A*00
$GPGGA,034805.397,3246.6272,N,11704.2263,W,1,09,0.9,136.3,M,-34.8,M,,0000*68
$GPVTG,294.2,T,,M,000.0,N,000.0,K,A*00
$GPGGA,034806.397,3246.6272,N,11704.2264,W,1,09,0.9,136.1,M,-34.8,M,,0000*6E
$GPVTG,294.2,T,,M,000.0,N,000.0,K,A*00
$GPGGA,034807.397,3246.6272,N,11704.2266,W,1,09,0.9,135.9,M,-34.8,M,,0000*66
$GPVTG,294.2,T,,M,000.0,N,000.0,K,A*00
$GPGGA,034808.397,3246.6271,N,11704.2267,W,1,09,0.9,135.8,M,-34.8,M,,0000*6A
$GPVTG,294.2,T,,M,000.0,N,000.0,K,A*00
$GPGGA,034809.397,3246.6271,N,11704.2268,W,1,09,0.9,135.7,M,-34.8,M,,0000*6B
$GPVTG,294.2,T,,M,000.0,N,000.0,K,A*00
$GPGGA,034810.397,3246.6271,N,11704.2268,W,1,09,0.9,135.6,M,-34.8,M,,0000*62
$GPVTG,294.2,T,,M,000.0,N,000.0,K,A*00
$GPGGA,034811.397,3246.6270,N,11704.2269,W,1,09,0.9,135.7,M,-34.8,M,,0000*62
$GPVTG,294.2,T,,M,000.0,N,000.0,K,A*00
$GPGGA,034812.397,3246.6270,N,11704.2269,W,1,09,0.9,135.8,M,-34.8,M,,0000*6E
$GPVTG,294.2,T,,M,000.0,N,000.0,K,A*00
$GPGGA,034813.397,3246.6270,N,11704.2270,W,1,09,0.9,135.8,M,-34.8,M,,0000*67
$GPVTG,294.2,T,,M,000.0,N,000.0,K,A*00
$GPGGA,034814.397,3246.6269,N,11704.2271,W,1,09,0.9,135.8,M,-34.8,M,,0000*69
$GPVTG,294.2,T,,M,000.0,N,000.0,K,A*00
$GPGGA,034815.397,3246.6269,N,11704.2272,W,1,09,0.9,135.7,M,-34.8,M,,0000*64
$GPVTG,294.2,T,,M,000.0,N,000.0,K,A*00
$GPGGA,034816.397,3246.6268,N,11704.2275,W,1,08,1.0,136.1,M,-34.8,M,,0000*6D
$GPVTG,294.2,T,,M,000.0,N,000.0,K,A*00
$GPGGA,034817.397,3246.6267,N,11704.2276,W,1,08,1.0,136.4,M,-34.8,M,,0000*65
$GPVTG,294.2,T,,M,000.0,N,000.0,K,A*00
$GPGGA,034818.397,3246.6265,N,11704.2276,W,1,09,0.9,136.8,M,-34.8,M,,0000*6D
$GPVTG,294.2,T,,M,000.0,N,000.0,K,A*00
$GPGGA,034819.397,3246.6265,N,11704.2277,W,1,09,0.9,137.0,M,-34.8,M,,0000*64
$GPVTG,294.2,T,,M,000.0,N,000.0,K,A*00
$GPGGA,034820.397,3246.6264,N,11704.2278,W,1,08,1.0,137.2,M,-34.8,M,,0000*6B
$GPVTG,294.2,T,,M,000.0,N,000.0,K,A*00
$GPGGA,034821.397,3246.6263,N,11704.2279,W,1,09,0.9,137.3,M,-34.8,M,,0000*64
$GPVTG,294.2,T,,M,000.0,N,000.0,K,A*00
$GPGGA,034822.397,3246.6263,N,11704.2279,W,1,10,0.9,137.4,M,-34.8,M,,0000*68
$GPVTG,294.2,T,,M,000.0,N,000.0,K,A*00
$GPGGA,034823.397,3246.6263,N,11704.2279,W,1,10,0.9,137.5,M,-34.8,M,,0000*68
$GPVTG,294.2,T,,M,000.0,N,000.0,K,A*00
$GPGGA,034824.397,3246.6262,N,11704.2279,W,1,10,0.9,137.8,M,-34.8,M,,0000*63
$GPVTG,294.2,T,,M,000.0,N,000.0,K,A*00
$GPGGA,034825.397,3246.6262,N,11704.2280,W,1,10,0.9,137.9,M,-34.8,M,,0000*65
$GPVTG,294.2,T,,M,000.0,N,000.0,K,A*00
$GPGGA,034826.397,3246.6262,N,11704.2280,W,1,09,0.9,138.0,M,-34.8,M,,0000*68
$GPVTG,294.2,T,,M,000.0,N,000.0,K,A*00
$GPGGA,034827.397,3246.6261,N,11704.2280,W,1,10,0.9,138.2,M,-34.8,M,,0000*60
$GPVTG,294.2,T,,M,000.0,N,000.0,K,A*00
$GPGGA,034828.397,3246.6260,N,11704.2280,W,1,10,0.9,138.4,M,-34.8,M,,0000*68
$GPVTG,294.2,T,,M,000.0,N,000.0,K,A*00
$GPGGA,034829.397,3246.6259,N,11704.2281,W,1,10,0.9,139.1,M,-34.8,M,,0000*66
$GPVTG,294.2,T,,M,000.0,N,000.0,K,A*00
$GPGGA,034830.397,3246.6258,N,11704.2283,W,1,10,0.9,139.5,M,-34.8,M,,0000*69
$GPVTG,294.2,T,,M,000.0,N,000.0,K,A*00
$GPGGA,034831.397,3246.6257,N,11704.2284,W,1,10,0.9,139.9,M,-34.8,M,,0000*6C
$GPVTG,294.2,T,,M,000.0,N,000.0,K,A*00
$GPGGA,034832.397,3246.6257,N,11704.2285,W,1,10,0.9,140.0,M,-34.8,M,,0000*69
$GPVTG,294.2,T,,M,000.0,N,000.0,K,A*00
$GPGGA,034833.397,3246.6257,N,11704.2285,W,1,10,0.9,140.1,M,-34.8,M,,0000*69
$GPVTG,294.2,T,,M,000.0,N,000.0,K,A*00
$GPGGA,034834.397,3246.6256,N,11704.2286,W,1,10,0.9,140.5,M,-34.8,M,,0000*68
$GPVTG,294.2,T,,M,000.0,N,000.0,K,A*00
$GPGGA,034835.397,3246.6254,N,11704.2286,W,1,10,0.9,140.8,M,-34.8,M,,0000*66
$GPVTG,294.2,T,,M,000.0,N,000.0,K,A*00
$GPGGA,034836.397,3246.6253,N,11704.2287,W,1,10,0.9,140.9,M,-34.8,M,,0000*62
$GPVTG,294.2,T,,M,000.0,N,000.0,K,A*00
$GPGGA,034837.397,3246.6253,N,11704.2289,W,1,10,0.9,140.9,M,-34.8,M,,0000*6D
$GPVTG,294.2,T,,M,000.0,N,000.0,K,A*00
$GPGGA,034838.397,3246.6253,N,11704.2289,W,1,10,0.9,141.0,M,-34.8,M,,0000*6A
$GPVTG,294.2,T,,M,000.0,N,000.0,K,A*00
$GPGGA,034839.397,3246.6253,N,11704.2290,W,1,10,0.9,141.1,M,-34.8,M,,0000*62
$GPVTG,294.2,T,,M,000.0,N,000.0,K,A*00
$GPGGA,034840.397,3246.6253,N,11704.2290,W,1,10,0.9,141.0,M,-34.8,M,,0000*6D
$GPVTG,294.2,T,,M,000.0,N,000.0,K,A*00
$GPGGA,034841.397,3246.6253,N,11704.2291,W,1,10,0.9,141.0,M,-34.8,M,,0000*6D
$GPVTG,294.2,T,,M,000.0,N,000.0,K,A*00
$GPGGA,034842.397,3246.6253,N,11704.2292,W,1,10,0.9,140.9,M,-34.8,M,,0000*65
$GPVTG,294.2,T,,M,000.0,N,000.0,K,A*00
$GPGGA,034843.397,3246.6253,N,11704.2293,W,1,10,0.9,140.8,M,-34.8,M,,0000*64
$GPVTG,294.2,T,,M,000.0,N,000.0,K,A*00
$GPGGA,034844.397,3246.6254,N,11704.2293,W,1,10,0.9,141.1,M,-34.8,M,,0000*6C
$GPVTG,294.2,T,,M,000.0,N,000.0,K,A*00
$GPGGA,034845.397,3246.6254,N,11704.2294,W,1,10,0.9,141.0,M,-34.8,M,,0000*6B
$GPVTG,294.2,T,,M,000.0,N,000.0,K,A*00
$GPGGA,034846.397,3246.6254,N,11704.2293,W,1,10,0.9,141.1,M,-34.8,M,,0000*6E
$GPVTG,294.2,T,,M,000.0,N,000.0,K,A*00
$GPGGA,034847.397,3246.6254,N,11704.2293,W,1,10,0.9,141.2,M,-34.8,M,,0000*6C
$GPVTG,294.2,T,,M,000.0,N,000.0,K,A*00
$GPGGA,034848.397,3246.6255,N,11704.2293,W,1,10,0.9,141.5,M,-34.8,M,,0000*65
$GPVTG,294.2,T,,M,000.0,N,000.0,K,A*00
$GPGGA,034849.397,3246.6255,N,11704.2293,W,1,10,0.9,141.7,M,-34.8,M,,0000*66
$GPVTG,294.2,T,,M,000.0,N,000.0,K,A*00
$GPGGA,034850.397,3246.6255,N,11704.2294,W,1,10,0.9,141.8,M,-34.8,M,,0000*66
$GPVTG,294.2,T,,M,000.0,N,000.0,K,A*00
$GPGGA,034851.397,3246.6255,N,11704.2293,W,1,10,0.9,141.8,M,-34.8,M,,0000*60
$GPVTG,294.2,T,,M,000.0,N,000.0,K,A*00
$GPGGA,034852.397,3246.6255,N,11704.2293,W,1,10,0.9,141.8,M,-34.8,M,,0000*63
$GPVTG,294.2,T,,M,000.0,N,000.0,K,A*00
$GPGGA,034853.397,3246.6255,N,11704.2294,W,1,10,0.9,141.8,M,-34.8,M,,0000*65
$GPVTG,294.2,T,,M,000.0,N,000.0,K,A*00
$GPGGA,034854.397,3246.6256,N,11704.2294,W,1,09,0.9,141.9,M,-34.8,M,,0000*68
$GPVTG,294.2,T,,M,000.0,N,000.0,K,A*00
$GPGGA,034855.397,3246.6256,N,11704.2294,W,1,09,0.9,141.7,M,-34.8,M,,0000*67
$GPVTG,294.2,T,,M,000.0,N,000.0,K,A*00
$GPGGA,034856.397,3246.6257,N,11704.2295,W,1,09,0.9,141.5,M,-34.8,M,,0000*66
