1.1,140.7,M,-34.8,M,,0000*6B
$GPVTG,090.2,T,,M,000.0,N,000.0,K,A*06
$GPGGA,223850.769,3246.6463,N,11704.2286,W,1,07,1.1,140.1,M,-34.8,M,,0000*60
$GPVTG,090.2,T,,M,000.0,N,000.0,K,A*06
$GPGGA,223851.769,3246.6462,N,11704.2287,W,1,07,1.1,139.7,M,-34.8,M,,0000*69
$GPVTG,090.2,T,,M,000.0,N,000.0,K,A*06
$GPGGA,223852.769,3246.6463,N,11704.2286,W,1,07,1.1,139.8,M,-34.8,M,,0000*65
$GPVTG,090.2,T,,M,000.0,N,000.0,K,A*06
$GPGGA,223853.769,3246.6465,N,11704.2286,W,1,07,1.1,140.0,M,-34.8,M,,0000*64
$GPVTG,090.2,T,,M,000.0,N,000.0,K,A*06
$GPGGA,223854.769,3246.6466,N,11704.2286,W,1,07,1.1,140.4,M,-34.8,M,,0000*64
$GPVTG,090.2,T,,M,000.0,N,000.0,K,A*06
$GPGGA,223855.769,3246.6467,N,11704.2286,W,1,07,1.1,140.8,M,-34.8,M,,0000*68
$GPVTG,090.2,T,,M,000.0,N,000.0,K,A*06
$GPGGA,223856.769,3246.6467,N,11704.2286,W,1,07,1.1,140.8,M,-34.8,M,,0000*6B
$GPVTG,090.2,T,,M,000.0,N,000.0,K,A*06
$GPGGA,223857.769,3246.6467,N,11704.2286,W,1,07,1.1,140.7,M,-34.8,M,,0000*65
$GPVTG,105.5,T,,M,000.6,N,001.1,K,A*0A
$GPGGA,223858.769,3246.6466,N,11704.2282,W,1,07,1.1,140.4,M,-34.8,M,,0000*6C
$GPVTG,103.0,T,,M,001.4,N,002.5,K,A*0D
$GPGGA,223859.769,3246.6463,N,11704.2277,W,1,07,1.1,139.6,M,-34.8,M,,0000*6E
$GPVTG,103.0,T,,M,000.0,N,000.0,K,A*0F
$GPGGA,223900.769,3246.6462,N,11704.2275,W,1,07,1.1,139.6,M,-34.8,M,,0000*60
$GPVTG,111.2,T,,M,001.4,N,002.6,K,A*0F
$GPGGA,223901.769,3246.6461,N,11704.2271,W,1,07,1.1,139.5,M,-34.8,M,,0000*65
$GPVTG,118.9,T,,M,001.5,N,002.8,K,A*02
$GPGGA,223902.769,3246.6457,N,11704.2264,W,1,07,1.1,139.0,M,-34.8,M,,0000*62
$GPVTG,121.4,T,,M,000.8,N,001.5,K,A*07
$GPGGA,223903.769,3246.6455,N,11704.2260,W,1,07,1.1,138.6,M,-34.8,M,,0000*62
$GPVTG,109.6,T,,M,000.8,N,001.4,K,A*0E
$GPGGA,223904.769,3246.6454,N,11704.2257,W,1,07,1.1,138.3,M,-34.8,M,,0000*65
$GPVTG,114.8,T,,M,000.6,N,001.2,K,A*04
$GPGGA,223905.769,3246.6453,N,11704.2253,W,1,07,1.1,137.8,M,-34.8,M,,0000*63
$GPVTG,102.4,T,,M,000.6,N,001.2,K,A*0F
$GPGGA,223906.769,3246.6450,N,11704.2250,W,1,07,1.1,137.4,M,-34.8,M,,0000*6C
$GPVTG,113.5,T,,M,001.0,N,001.9,K,A*02
$GPGGA,223907.769,3246.6448,N,11704.2244,W,1,07,1.1,137.3,M,-34.8,M,,0000*66
$GPVTG,116.9,T,,M,001.6,N,002.9,K,A*0E
$GPGGA,223908.769,3246.6443,N,11704.2236,W,1,07,1.1,137.0,M,-34.8,M,,0000*64
$GPVTG,123.7,T,,M,001.0,N,001.9,K,A*03
$GPGGA,223909.769,3246.6444,N,11704.2233,W,1,07,1.1,136.8,M,-34.8,M,,0000*6E
$GPVTG,109.3,T,,M,000.9,N,001.7,K,A*09
$GPGGA,223910.769,3246.6443,N,11704.2230,W,1,07,1.1,136.3,M,-34.8,M,,0000*69
$GPVTG,114.8,T,,M,000.9,N,001.7,K,A*0E
$GPGGA,223911.769,3246.6442,N,11704.2226,W,1,07,1.1,135.5,M,-34.8,M,,0000*6B
$GPVTG,114.8,T,,M,000.0,N,000.0,K,A*01
$GPGGA,223912.769,3246.6444,N,11704.2224,W,1,07,1.1,135.6,M,-34.8,M,,0000*6F
$GPVTG,086.2,T,,M,000.6,N,001.1,K,A*07
$GPGGA,223913.769,3246.6443,N,11704.2220,W,1,07,1.1,134.7,M,-34.8,M,,0000*6D
$GPVTG,100.4,T,,M,000.8,N,001.5,K,A*04
$GPGGA,223914.769,3246.6443,N,11704.2218,W,1,07,1.1,133.8,M,-34.8,M,,0000*69
$GPVTG,107.9,T,,M,000.7,N,001.3,K,A*07
$GPGGA,223915.769,3246.6443,N,11704.2212,W,1,07,1.1,133.3,M,-34.8,M,,0000*69
$GPVTG,087.0,T,,M,000.6,N,001.1,K,A*04
$GPGGA,223916.769,3246.6441,N,11704.2199,W,1,07,1.1,133.8,M,-34.8,M,,0000*63
$GPVTG,100.1,T,,M,001.2,N,002.2,K,A*0E
$GPGGA,223917.769,3246.6440,N,11704.2194,W,1,07,1.1,133.8,M,-34.8,M,,0000*6E
$GPVTG,106.0,T,,M,001.4,N,002.6,K,A*0B
$GPGGA,223918.769,3246.6439,N,11704.2188,W,1,07,1.1,133.6,M,-34.8,M,,0000*6C
$GPVTG,108.6,T,,M,001.7,N,003.2,K,A*05
$GPGGA,223919.769,3246.6437,N,11704.2185,W,1,07,1.1,133.1,M,-34.8,M,,0000*69
$GPVTG,118.9,T,,M,001.5,N,002.7,K,A*0D
$GPGGA,223920.769,3246.6436,N,11704.2179,W,1,07,1.1,132.8,M,-34.8,M,,0000*69
$GPVTG,104.0,T,,M,000.6,N,001.1,K,A*0E
$GPGGA,223921.769,3246.6439,N,11704.2175,W,1,07,1.1,133.3,M,-34.8,M,,0000*61
$GPVTG,095.7,T,,M,000.9,N,001.7,K,A*09
$GPGGA,223922.769,3246.6436,N,11704.2169,W,1,07,1.1,132.7,M,-34.8,M,,0000*65
$GPVTG,103.9,T,,M,000.9,N,001.6,K,A*08
$GPGGA,223923.769,3246.6439,N,11704.2163,W,1,07,1.1,133.1,M,-34.8,M,,0000*66
$GPVTG,095.5,T,,M,001.7,N,003.1,K,A*00
$GPGGA,223924.769,3246.6441,N,11704.2159,W,1,07,1.1,132.4,M,-34.8,M,,0000*63
$GPVTG,095.5,T,,M,000.0,N,000.0,K,A*04
$GPGGA,223925.769,3246.6441,N,11704.2153,W,1,07,1.1,133.1,M,-34.8,M,,0000*6C
$GPVTG,109.6,T,,M,001.5,N,002.7,K,A*02
$GPGGA,223926.769,3246.6441,N,11704.2148,W,1,07,1.1,132.6,M,-34.8,M,,0000*63
$GPVTG,109.6,T,,M,000.0,N,000.0,K,A*03
$GPGGA,223927.769,3246.6440,N,11704.2145,W,1,07,1.1,133.0,M,-34.8,M,,0000*69
$GPVTG,107.8,T,,M,001.4,N,002.6,K,A*02
$GPGGA,223928.769,3246.6442,N,11704.2136,W,1,07,1.1,133.6,M,-34.8,M,,0000*66
$GPVTG,093.9,T,,M,002.3,N,004.2,K,A*09
$GPGGA,223929.769,3246.6441,N,11704.2129,W,1,07,1.1,133.6,M,-34.8,M,,0000*6A
$GPVTG,098.4,T,,M,002.0,N,003.7,K,A*0E
$GPGGA,223930.769,3246.6442,N,11704.2121,W,1,07,1.1,133.4,M,-34.8,M,,0000*6B
$GPVTG,098.4,T,,M,000.0,N,000.0,K,A*08
$GPGGA,223931.769,3246.6446,N,11704.2119,W,1,07,1.1,133.7,M,-34.8,M,,0000*66
$GPVTG,055.8,T,,M,000.8,N,001.5,K,A*09
$GPGGA,223932.769,3246.6447,N,11704.2117,W,1,07,1.1,132.8,M,-34.8,M,,0000*64
$GPVTG,055.8,T,,M,000.0,N,000.0,K,A*05
$GPGGA,223933.769,3246.6444,N,11704.2117,W,1,07,1.1,131.9,M,-34.8,M,,0000*64
$GPVTG,055.8,T,,M,000.0,N,000.0,K,A*05
$GPGGA,223934.769,3246.6446,N,11704.2116,W,1,07,1.1,132.0,M,-34.8,M,,0000*6A
$GPVTG,088.6,T,,M,000.7,N,001.3,K,A*0E
$GPGGA,223935.769,3246.6445,N,11704.2112,W,1,07,1.1,130.9,M,-34.8,M,,0000*67
$GPVTG,087.5,T,,M,000.6,N,001.1,K,A*01
$GPGGA,223936.769,3246.6447,N,11704.2104,W,1,07,1.1,130.8,M,-34.8,M,,0000*60
$GPVTG,087.4,T,,M,001.0,N,001.9,K,A*0F
$GPGGA,223937.769,3246.6445,N,11704.2099,W,1,07,1.1,130.0,M,-34.8,M,,0000*6E
$GPVTG,086.5,T,,M,000.5,N,001.0,K,A*02
$GPGGA,223938.769,3246.6443,N,11704.2096,W,1,07,1.1,129.0,M,-34.8,M,,0000*60
$GPVTG,086.5,T,,M,000.0,N,000.0,K,A*06
$GPGGA,223939.769,3246.6441,N,11704.2095,W,1,07,1.1,128.5,M,-34.8,M,,0000*64
$GPVTG,079.9,T,,M,000.6,N,001.0,K,A*0D
$GPGGA,223940.769,3246.6443,N,11704.2087,W,1,07,1.1,128.8,M,-34.8,M,,0000*66
$GPVTG,094.6,T,,M,000.7,N,001.4,K,A*04
$GPGGA,223941.769,3246.6440,N,11704.2084,W,1,07,1.1,128.1,M,-34.8,M,,0000*6E
$GPVTG,094.6,T,,M,000.0,N,000.0,K,A*06
$GPGGA,223942.769,3246.6442,N,11704.2071,W,1,07,1.1,130.0,M,-34.8,M,,0000*6D
$GPVTG,093.6,T,,M,000.9,N,001.7,K,A*0E
$GPGGA,223943.769,3246.6444,N,11704.2058,W,1,07,1.1,131.6,M,-34.8,M,,0000*66
$GPVTG,093.6,T,,M,000.0,N,000.0,K,A*01
$GPGGA,223944.769,3246.6446,N,11704.2054,W,1,07,1.1,132.4,M,-34.8,M,,0000*6E
$GPVTG,093.6,T,,M,000.0,N,000.0,K,A*01
$GPGGA,223945.769,3246.6447,N,11704.2051,W,1,07,1.1,133.3,M,-34.8,M,,0000*6D
$GPVTG,093.6,T,,M,000.0,N,000.0,K,A*01
$GPGGA,223946.769,3246.6449,N,11704.2050,W,1,07,1.1,133.7,M,-34.8,M,,0000*65
$GPVTG,093.6,T,,M,000.0,N,000.0,K,A*01
$GPGGA,223947.769,3246.6450,N,11704.2049,W,1,07,1.1,134.3,M,-34.8,M,,0000*67
$GPVTG,093.6,T,,M,000.0,N,000.0,K,A*01
$GPGGA,223948.769,3246.6452,N,11704.2048,W,1,07,1.1,134.7,M,-34.8,M,,0000*6F
$GPVTG,093.6,T,,M,000.0,N,000.0,K,A*01
$GPGGA,223949.769,3246.6453,N,11704.2046,W,1,07,1.1,135.2,M,-34.8,M,,0000*65
$GPVTG,093.6,T,,M,000.0,N,000.0,K,A*01
$GPGGA,223950.769,3246.6454,N,11704.2045,W,1,07,1.1,135.5,M,-34.8,M,,0000*6E
$GPVTG,093.6,T,,M,000.0,N,000.0,K,A*01
$GPGGA,223951.769,3246.6455,N,11704.2045,W,1,07,1.1,135.7,M,-34.8,M,,0000*6C
$GPVTG,093.6,T,,M,000.0,N,000.0,K,A*01
$GPGGA,223952.769,3246.6454,N,11704.2045,W,1,07,1.1,135.8,M,-34.8,M,,0000*61
$GPVTG,093.6,T,,M,000.0,N,000.0,K,A*01
$GPGGA,223953.769,3246.6454,N,11704.2046,W,1,07,1.1,135.6,M,-34.8,M,,0000*6D
$GPVTG,093.6,T,,M,000.0,N,000.0,K,A*01
$GPGGA,223954.769,3246.6453,N,11704.2047,W,1,07,1.1,135.6,M,-34.8,M,,0000*6C
