$GPGGA,224033.769,3246.6443,N,11704.2040,W,1,07,1.1,135.0,M,-34.8,M,,0000*63
$GPVTG,093.6,T,,M,000.0,N,000.0,K,A*01
$GPGGA,224034.769,3246.6443,N,11704.2040,W,1,07,1.1,135.0,M,-34.8,M,,0000*64
$GPVTG,093.6,T,,M,000.0,N,000.0,K,A*01
$GPGGA,224035.769,3246.6443,N,11704.2040,W,1,07,1.1,134.9,M,-34.8,M,,0000*6D
$GPVTG,093.6,T,,M,000.0,N,000.0,K,A*01
$GPGGA,224036.769,3246.6443,N,11704.2040,W,1,07,1.1,134.9,M,-34.8,M,,0000*6E
$GPVTG,093.6,T,,M,000.0,N,000.0,K,A*01
$GPGGA,224037.769,3246.6443,N,11704.2040,W,1,07,1.1,134.8,M,-34.8,M,,0000*6E
$GPVTG,093.6,T,,M,000.0,N,000.0,K,A*01
$GPGGA,224038.769,3246.6443,N,11704.2040,W,1,07,1.1,134.9,M,-34.8,M,,0000*60
$GPVTG,093.6,T,,M,000.0,N,000.0,K,A*01
$GPGGA,224039.769,3246.6443,N,11704.2040,W,1,07,1.1,134.9,M,-34.8,M,,0000*61
$GPVTG,093.6,T,,M,000.0,N,000.0,K,A*01
$GPGGA,224040.769,3246.6442,N,11704.2040,W,1,07,1.1,134.9,M,-34.8,M,,0000*6E
$GPVTG,093.6,T,,M,000.0,N,000.0,K,A*01
$GPGGA,224041.769,3246.6442,N,11704.2039,W,1,07,1.1,135.0,M,-34.8,M,,0000*69
$GPVTG,093.6,T,,M,000.0,N,000.0,K,A*01
$GPGGA,224042.769,3246.6442,N,11704.2039,W,1,07,1.1,135.0,M,-34.8,M,,0000*6A
$GPVTG,176.1,T,,M,001.0,N,001.9,K,A*05
$GPGGA,224043.769,3246.6437,N,11704.2038,W,1,07,1.1,135.3,M,-34.8,M,,0000*6B
$GPVTG,144.3,T,,M,001.0,N,001.9,K,A*06
$GPGGA,224044.769,3246.6433,N,11704.2035,W,1,07,1.1,135.6,M,-34.8,M,,0000*60
$GPVTG,158.4,T,,M,001.1,N,002.1,K,A*06
$GPGGA,224045.769,3246.6428,N,11704.2034,W,1,07,1.1,135.8,M,-34.8,M,,0000*64
$GPVTG,172.5,T,,M,001.5,N,002.7,K,A*0D
$GPGGA,224046.769,3246.6421,N,11704.2033,W,1,07,1.1,136.2,M,-34.8,M,,0000*60
$GPVTG,174.2,T,,M,001.7,N,003.1,K,A*09
$GPGGA,224047.769,3246.6415,N,11704.2032,W,1,07,1.1,136.7,M,-34.8,M,,0000*62
$GPVTG,172.9,T,,M,001.6,N,003.0,K,A*04
$GPGGA,224048.769,3246.6407,N,11704.2029,W,1,07,1.1,137.8,M,-34.8,M,,0000*6A
$GPVTG,144.0,T,,M,001.0,N,001.9,K,A*05
$GPGGA,224049.769,3246.6402,N,11704.2026,W,1,07,1.1,138.2,M,-34.8,M,,0000*64
$GPVTG,142.4,T,,M,001.2,N,002.3,K,A*0C
$GPGGA,224050.769,3246.6396,N,11704.2023,W,1,07,1.1,138.7,M,-34.8,M,,0000*66
$GPVTG,156.0,T,,M,001.3,N,002.4,K,A*0B
$GPGGA,224051.769,3246.6390,N,11704.2023,W,1,07,1.1,138.9,M,-34.8,M,,0000*6F
$GPVTG,163.7,T,,M,001.9,N,003.4,K,A*01
$GPGGA,224052.769,3246.6382,N,11704.2021,W,1,07,1.1,139.1,M,-34.8,M,,0000*64
$GPVTG,154.1,T,,M,001.2,N,002.2,K,A*0F
$GPGGA,224053.769,3246.6378,N,11704.2018,W,1,07,1.1,139.9,M,-34.8,M,,0000*62
$GPVTG,147.8,T,,M,001.5,N,002.9,K,A*08
$GPGGA,224054.769,3246.6373,N,11704.2016,W,1,07,1.1,140.0,M,-34.8,M,,0000*67
$GPVTG,153.8,T,,M,001.9,N,003.4,K,A*0D
$GPGGA,224055.769,3246.6364,N,11704.2011,W,1,07,1.1,140.6,M,-34.8,M,,0000*61
$GPVTG,150.5,T,,M,001.3,N,002.4,K,A*08
$GPGGA,224056.769,3246.6362,N,11704.2010,W,1,07,1.1,141.6,M,-34.8,M,,0000*64
$GPVTG,150.5,T,,M,000.0,N,000.0,K,A*0C
$GPGGA,224057.769,3246.6360,N,11704.2008,W,1,07,1.1,142.2,M,-34.8,M,,0000*69
$GPVTG,137.8,T,,M,001.4,N,002.5,K,A*02
$GPGGA,224058.769,3246.6354,N,11704.2005,W,1,07,1.1,143.8,M,-34.8,M,,0000*67
$GPVTG,153.4,T,,M,001.1,N,002.1,K,A*0D
$GPGGA,224059.769,3246.6351,N,11704.2002,W,1,07,1.1,144.9,M,-34.8,M,,0000*62
$GPVTG,143.2,T,,M,001.5,N,002.7,K,A*08
$GPGGA,224100.769,3246.6347,N,11704.1998,W,1,07,1.1,146.4,M,-34.8,M,,0000*6E
$GPVTG,154.1,T,,M,000.7,N,001.3,K,A*09
$GPGGA,224101.769,3246.6340,N,11704.1994,W,1,07,1.1,147.7,M,-34.8,M,,0000*66
$GPVTG,144.8,T,,M,001.5,N,002.7,K,A*05
$GPGGA,224102.769,3246.6339,N,11704.1995,W,1,07,1.1,150.9,M,-34.8,M,,0000*62
$GPVTG,151.3,T,,M,001.6,N,002.9,K,A*07
$GPGGA,224103.769,3246.6335,N,11704.1991,W,1,07,1.1,153.9,M,-34.8,M,,0000*68
$GPVTG,141.6,T,,M,001.0,N,001.9,K,A*06
$GPGGA,224104.769,3246.6333,N,11704.1988,W,1,07,1.1,155.4,M,-34.8,M,,0000*6A
$GPVTG,139.3,T,,M,001.6,N,002.9,K,A*09
$GPGGA,224105.769,3246.6328,N,11704.1983,W,1,07,1.1,156.7,M,-34.8,M,,0000*6A
$GPVTG,127.7,T,,M,001.3,N,002.4,K,A*0A
$GPGGA,224106.769,3246.6323,N,11704.1977,W,1,07,1.1,156.6,M,-34.8,M,,0000*68
$GPVTG,138.3,T,,M,001.2,N,002.1,K,A*04
$GPGGA,224107.769,3246.6316,N,11704.1975,W,1,07,1.1,156.1,M,-34.8,M,,0000*6A
$GPVTG,146.9,T,,M,001.8,N,003.3,K,A*0E
$GPGGA,224108.769,3246.6309,N,11704.1973,W,1,07,1.1,157.1,M,-34.8,M,,0000*6C
$GPVTG,145.3,T,,M,000.8,N,001.5,K,A*02
$GPGGA,224109.769,3246.6304,N,11704.1973,W,1,07,1.1,158.6,M,-34.8,M,,0000*68
$GPVTG,152.5,T,,M,001.5,N,002.7,K,A*0F
$GPGGA,224110.769,3246.6300,N,11704.1971,W,1,07,1.1,161.4,M,-34.8,M,,0000*6E
$GPVTG,144.6,T,,M,001.0,N,001.8,K,A*02
$GPGGA,224111.769,3246.6293,N,11704.1969,W,1,07,1.1,161.8,M,-34.8,M,,0000*61
$GPVTG,138.0,T,,M,001.1,N,002.1,K,A*04
$GPGGA,224112.769,3246.6298,N,11704.1970,W,1,07,1.1,166.9,M,-34.8,M,,0000*67
$GPVTG,139.2,T,,M,000.9,N,001.7,K,A*0B
$GPGGA,224113.769,3246.6296,N,11704.1969,W,1,07,1.1,168.0,M,-34.8,M,,0000*67
$GPVTG,139.2,T,,M,000.0,N,000.0,K,A*04
$GPGGA,224114.769,3246.6301,N,11704.1970,W,1,07,1.1,170.6,M,-34.8,M,,0000*68
$GPVTG,139.2,T,,M,000.0,N,000.0,K,A*04
$GPGGA,224115.769,3246.6308,N,11704.1969,W,1,07,1.1,173.2,M,-34.8,M,,0000*6F
$GPVTG,139.2,T,,M,000.0,N,000.0,K,A*04
$GPGGA,224116.769,3246.6309,N,11704.1969,W,1,07,1.1,173.7,M,-34.8,M,,0000*68
$GPVTG,139.2,T,,M,000.0,N,000.0,K,A*04
$GPGGA,224117.769,3246.6309,N,11704.1969,W,1,07,1.1,173.7,M,-34.8,M,,0000*69
$GPVTG,139.2,T,,M,000.0,N,000.0,K,A*04
$GPGGA,224118.769,3246.6311,N,11704.1970,W,1,07,1.1,175.3,M,-34.8,M,,0000*65
$GPVTG,139.2,T,,M,000.0,N,000.0,K,A*04
$GPGGA,224119.769,3246.6311,N,11704.1970,W,1,07,1.1,176.1,M,-34.8,M,,0000*65
$GPVTG,139.2,T,,M,000.0,N,000.0,K,A*04
$GPGGA,224120.769,3246.6311,N,11704.1971,W,1,07,1.1,176.4,M,-34.8,M,,0000*6B
$GPVTG,139.2,T,,M,000.0,N,000.0,K,A*04
$GPGGA,224121.769,3246.6311,N,11704.1971,W,1,07,1.1,176.2,M,-34.8,M,,0000*6C
$GPVTG,139.2,T,,M,000.0,N,000.0,K,A*04
$GPGGA,224122.769,3246.6311,N,11704.1971,W,1,07,1.1,176.3,M,-34.8,M,,0000*6E
$GPVTG,139.2,T,,M,000.0,N,000.0,K,A*04
$GPGGA,224123.769,3246.6311,N,11704.1971,W,1,07,1.1,176.4,M,-34.8,M,,0000*68
$GPVTG,139.2,T,,M,000.0,N,000.0,K,A*04
$GPGGA,224124.769,3246.6312,N,11704.1971,W,1,07,1.1,176.5,M,-34.8,M,,0000*6D
$GPVTG,139.2,T,,M,000.0,N,000.0,K,A*04
$GPGGA,224125.769,3246.6313,N,11704.1972,W,1,07,1.1,177.3,M,-34.8,M,,0000*69
