$GPGGA,223004.768,3246.6264,N,11704.2333,W,1,07,1.0,140.6,M,-34.8,M,,0000*60
$GPVTG,258.3,T,,M,000.0,N,000.0,K,A*01
$GPGGA,223005.768,3246.6264,N,11704.2333,W,1,07,1.0,140.5,M,-34.8,M,,0000*62
$GPVTG,258.3,T,,M,000.0,N,000.0,K,A*01
$GPGGA,223006.768,3246.6264,N,11704.2333,W,1,07,1.0,140.3,M,-34.8,M,,0000*67
$GPVTG,258.3,T,,M,000.0,N,000.0,K,A*01
$GPGGA,223007.768,3246.6264,N,11704.2333,W,1,07,1.0,140.1,M,-34.8,M,,0000*64
$GPVTG,258.3,T,,M,000.0,N,000.0,K,A*01
$GPGGA,223008.768,3246.6264,N,11704.2332,W,1,07,1.0,139.8,M,-34.8,M,,0000*6D
$GPVTG,258.3,T,,M,000.0,N,000.0,K,A*01
$GPGGA,223009.768,3246.6264,N,11704.2332,W,1,07,1.0,139.7,M,-34.8,M,,0000*63
$GPVTG,258.3,T,,M,000.0,N,000.0,K,A*01
$GPGGA,223010.768,3246.6264,N,11704.2332,W,1,07,1.0,139.7,M,-34.8,M,,0000*6B
$GPVTG,258.3,T,,M,000.0,N,000.0,K,A*01
$GPGGA,223011.768,3246.6264,N,11704.2332,W,1,07,1.0,139.7,M,-34.8,M,,0000*6A
$GPVTG,253.1,T,,M,000.7,N,001.3,K,A*0D
$GPGGA,223012.768,3246.6264,N,11704.2335,W,1,07,1.0,139.8,M,-34.8,M,,0000*61
$GPVTG,264.7,T,,M,000.6,N,001.1,K,A*0C
$GPGGA,223013.768,3246.6264,N,11704.2336,W,1,07,1.0,139.9,M,-34.8,M,,0000*62
$GPVTG,264.7,T,,M,000.0,N,000.0,K,A*0A
$GPGGA,223014.768,3246.6264,N,11704.2336,W,1,07,1.0,140.0,M,-34.8,M,,0000*62
$GPVTG,264.7,T,,M,000.0,N,000.0,K,A*0A
$GPGGA,223015.768,3246.6263,N,11704.2334,W,1,06,1.7,139.3,M,-34.8,M,,0000*6D
$GPVTG,264.7,T,,M,000.0,N,000.0,K,A*0A
$GPGGA,223016.768,3246.6263,N,11704.2334,W,1,07,1.0,139.2,M,-34.8,M,,0000*69
$GPVTG,264.7,T,,M,000.0,N,000.0,K,A*0A
$GPGGA,223017.768,3246.6262,N,11704.2334,W,1,07,1.0,139.3,M,-34.8,M,,0000*68
$GPVTG,161.3,T,,M,000.7,N,001.3,K,A*0D
$GPGGA,223018.768,3246.6259,N,11704.2334,W,1,07,1.0,139.4,M,-34.8,M,,0000*68
$GPVTG,176.5,T,,M,001.0,N,001.9,K,A*01
$GPGGA,223019.768,3246.6254,N,11704.2335,W,1,07,1.0,140.3,M,-34.8,M,,0000*6C
$GPVTG,180.4,T,,M,001.3,N,002.4,K,A*04
$GPGGA,223020.768,3246.6249,N,11704.2335,W,1,07,1.0,140.8,M,-34.8,M,,0000*61
$GPVTG,167.8,T,,M,000.6,N,001.1,K,A*03
$GPGGA,223021.768,3246.6247,N,11704.2335,W,1,07,1.0,140.7,M,-34.8,M,,0000*61
$GPVTG,168.3,T,,M,000.6,N,001.1,K,A*07
$GPGGA,223022.768,3246.6245,N,11704.2335,W,1,06,1.2,140.5,M,-34.8,M,,0000*61
$GPVTG,168.3,T,,M,000.0,N,000.0,K,A*01
$GPGGA,223023.768,3246.6246,N,11704.2333,W,1,07,1.0,140.1,M,-34.8,M,,0000*62
$GPVTG,168.3,T,,M,000.0,N,000.0,K,A*01
$GPGGA,223024.768,3246.6245,N,11704.2333,W,1,07,1.0,140.0,M,-34.8,M,,0000*67
$GPVTG,168.3,T,,M,000.0,N,000.0,K,A*01
$GPGGA,223025.768,3246.6245,N,11704.2333,W,1,07,1.0,140.0,M,-34.8,M,,0000*66
$GPVTG,168.3,T,,M,000.0,N,000.0,K,A*01
$GPGGA,223026.768,3246.6243,N,11704.2334,W,1,07,1.0,139.8,M,-34.8,M,,0000*62
$GPVTG,168.3,T,,M,000.0,N,000.0,K,A*01
$GPGGA,223027.768,3246.6240,N,11704.2337,W,1,07,1.0,139.3,M,-34.8,M,,0000*68
$GPVTG,252.9,T,,M,000.7,N,001.4,K,A*03
$GPGGA,223028.768,3246.6238,N,11704.2341,W,1,07,1.0,138.4,M,-34.8,M,,0000*6F
$GPVTG,257.3,T,,M,000.7,N,001.2,K,A*0A
$GPGGA,223029.768,3246.6238,N,11704.2345,W,1,07,1.0,138.1,M,-34.8,M,,0000*6F
$GPVTG,267.1,T,,M,000.7,N,001.4,K,A*0D
$GPGGA,223030.768,3246.6238,N,11704.2351,W,1,07,1.0,138.3,M,-34.8,M,,0000*60
$GPVTG,267.1,T,,M,000.0,N,000.0,K,A*0F
$GPGGA,223031.768,3246.6238,N,11704.2352,W,1,07,1.0,138.4,M,-34.8,M,,0000*65
$GPVTG,267.1,T,,M,000.0,N,000.0,K,A*0F
$GPGGA,223032.768,3246.6238,N,11704.2353,W,1,07,1.0,138.6,M,-34.8,M,,0000*65
$GPVTG,267.1,T,,M,000.0,N,000.0,K,A*0F
$GPGGA,223033.768,3246.6238,N,11704.2352,W,1,07,1.0,139.1,M,-34.8,M,,0000*63
$GPVTG,267.1,T,,M,000.0,N,000.0,K,A*0F
$GPGGA,223034.768,3246.6238,N,11704.2353,W,1,07,1.0,139.9,M,-34.8,M,,0000*6D
$GPVTG,267.1,T,,M,000.0,N,000.0,K,A*0F
$GPGGA,223035.768,3246.6238,N,11704.2354,W,1,07,1.0,140.2,M,-34.8,M,,0000*6E
$GPVTG,267.1,T,,M,000.0,N,000.0,K,A*0F
$GPGGA,223036.768,3246.6238,N,11704.2355,W,1,07,1.0,141.1,M,-34.8,M,,0000*6E
$GPVTG,267.1,T,,M,000.0,N,000.0,K,A*0F
$GPGGA,223037.768,3246.6237,N,11704.2356,W,1,07,1.0,141.4,M,-34.8,M,,0000*66
$GPVTG,267.1,T,,M,000.0,N,000.0,K,A*0F
$GPGGA,223038.768,3246.6236,N,11704.2356,W,1,07,1.0,142.0,M,-34.8,M,,0000*6F
$GPVTG,176.3,T,,M,000.6,N,001.1,K,A*08
$GPGGA,223039.768,3246.6233,N,11704.2356,W,1,07,1.0,142.3,M,-34.8,M,,0000*68
$GPVTG,177.4,T,,M,000.8,N,001.4,K,A*05
$GPGGA,223040.768,3246.6228,N,11704.2357,W,1,07,1.0,143.0,M,-34.8,M,,0000*6F
$GPVTG,200.7,T,,M,000.6,N,001.2,K,A*0D
$GPGGA,223041.768,3246.6226,N,11704.2357,W,1,07,1.0,144.2,M,-34.8,M,,0000*65
$GPVTG,200.7,T,,M,000.0,N,000.0,K,A*08
$GPGGA,223042.768,3246.6226,N,11704.2356,W,1,07,1.0,144.9,M,-34.8,M,,0000*6C
$GPVTG,200.7,T,,M,000.0,N,000.0,K,A*08
$GPGGA,223043.768,3246.6226,N,11704.2355,W,1,07,1.0,145.2,M,-34.8,M,,0000*64
$GPVTG,200.7,T,,M,000.0,N,000.0,K,A*08
$GPGGA,223044.768,3246.6226,N,11704.2354,W,1,07,1.0,145.4,M,-34.8,M,,0000*64
$GPVTG,200.7,T,,M,000.0,N,000.0,K,A*08
$GPGGA,223045.768,3246.6226,N,11704.2353,W,1,07,1.0,146.4,M,-34.8,M,,0000*61
$GPVTG,200.7,T,,M,000.0,N,000.0,K,A*08
$GPGGA,223046.768,3246.6227,N,11704.2353,W,1,07,1.0,146.7,M,-34.8,M,,0000*60
$GPVTG,200.7,T,,M,000.0,N,000.0,K,A*08
$GPGGA,223047.768,3246.6226,N,11704.2354,W,1,07,1.0,146.6,M,-34.8,M,,0000*66
$GPVTG,200.7,T,,M,000.0,N,000.0,K,A*08
$GPGGA,223048.768,3246.6227,N,11704.2356,W,1,07,1.0,146.4,M,-34.8,M,,0000*68
$GPVTG,281.0,T,,M,000.6,N,001.0,K,A*01
$GPGGA,223049.768,3246.6228,N,11704.2358,W,1,07,1.0,146.6,M,-34.8,M,,0000*6A
$GPVTG,281.0,T,,M,000.0,N,000.0,K,A*06
$GPGGA,223050.768,3246.6227,N,11704.2364,W,1,07,1.0,146.1,M,-34.8,M,,0000*65
$GPVTG,297.5,T,,M,001.1,N,002.0,K,A*06
$GPGGA,223051.768,3246.6228,N,11704.2369,W,1,07,1.0,146.2,M,-34.8,M,,0000*65
$GPVTG,285.2,T,,M,001.7,N,003.1,K,A*04
$GPGGA,223052.768,3246.6229,N,11704.2378,W,1,07,1.0,147.0,M,-34.8,M,,0000*64
$GPVTG,285.2,T,,M,000.0,N,000.0,K,A*00
$GPGGA,223053.768,3246.6230,N,11704.2379,W,1,07,1.0,147.2,M,-34.8,M,,0000*6E
$GPVTG,288.8,T,,M,000.8,N,001.4,K,A*0A
$GPGGA,223054.768,3246.6232,N,11704.2383,W,1,07,1.0,147.1,M,-34.8,M,,0000*6D
$GPVTG,299.1,T,,M,000.6,N,001.0,K,A*09
$GPGGA,223055.768,3246.6225,N,11704.2396,W,1,07,1.0,145.6,M,-34.8,M,,0000*6B
$GPVTG,237.1,T,,M,001.4,N,002.6,K,A*0B
$GPGGA,223056.768,3246.6221,N,11704.2408,W,1,06,1.7,144.8,M,-34.8,M,,0000*65
$GPVTG,273.5,T,,M,001.1,N,002.1,K,A*0D
$GPGGA,223057.768,3246.6220,N,11704.2410,W,1,06,1.2,144.5,M,-34.8,M,,0000*64
$GPVTG,273.5,T,,M,000.0,N,000.0,K,A*0E
$GPGGA,223058.768,3246.6219,N,11704.2412,W,1,06,1.7,144.5,M,-34.8,M,,0000*66
$GPVTG,273.5,T,,M,000.0,N,000.0,K,A*0E
$GPGGA,223059.768,3246.6219,N,11704.2414,W,1,07,1.0,144.3,M,-34.8,M,,0000*61
$GPVTG,273.5,T,,M,000.0,N,000.0,K,A*0E
$GPGGA,223100.768,3246.6218,N,11704.2417,W,1,07,1.0,144.2,M,-34.8,M,,0000*6F
$GPVTG,273.5,T,,M,000.0,N,000.0,K,A*0E
$GPGGA,223101.768,3246.6217,N,11704.2418,W,1,07,1.0,143.7,M,-34.8,M,,0000*6C
$GPVTG,273.5,T,,M,000.0,N,000.0,K,A*0E
$GPGGA,223102.768,3246.6215,N,11704.2419,W,1,06,1.7,143.6,M,-34.8,M,,0000*6B
$GPVTG,273.5,T,,M,000.0,N,000.0,K,A*0E
$GPGGA,223103.768,3246.6215,N,11704.2421,W,1,07,1.0,143.6,M,-34.8,M,,0000*67
$GPVTG,273.5,T,,M,000.0,N,000.0,K,A*0E
$GPGGA,223104.768,3246.6214,N,11704.2421,W,1,07,1.0,143.8,M,-34.8,M,,0000*6F
$GPVTG,273.5,T,,M,000.0,N,000.0,K,A*0E
$GPGGA,223105.768,3246.6214,N,11704.2420,W,1,07,1.0,143.8,M,-34.8,M,,0000*6F
$GPVTG,273.5,T,,M,000.0,N,000.0,K,A*0E
$GPGGA,223106.768,3246.6213,N,11704.2419,W,1,07,1.0,143.5,M,-34.8,M,,0000*6C
$GPVTG,183.2,T,,M,000.7,N,001.3,K,A*00
$GPGGA,223107.768,3246.6211,N,11704.2418,W,1,07,1.0,144.2,M,-34.8,M,,0000*6E
$GPVTG,183.2,T,,M,000.0,N,000.0,K,A*05
$GPGGA,223108.768,3246.6211,N,11704.2418,W,1,07,1.0,144.3,M,-34.8,M,,0000*60
$GPVTG,183.2,T,,M,000.0,N,000.0,K,A*05
$GPGGA,223109.768,3246.6210,N,11704.2416,W,1,07,1.0,144.3,M,-34.8,M,,0000*6E
$GPVTG,183.2,T,,M,000.0,N,000.0,K,A*05
$GPGGA,223110.768,3246.6210,N,11704.2417,W,1,07,1.0,144.4,M,-34.8,M,,0000*60
$GPVTG,161.5,T,,M,000.6,N,001.1,K,A*08
$GPGGA,223111.768,3246.6206,N,11704.2416,W,1,07,1.0,144.3,M,-34.8,M,,0000*60
$GPVTG,161.5,T,,M,000.0,N,000.0,K,A*0E
$GPGGA,223112.768,3246.6206,N,11704.2418,W,1,07,1.0,144.3,M,-34.8,M,,0000*6D
$GPVTG,161.5,T,,M,000.0,N,000.0,K,A*0E
$GPGGA,223113.768,3246.6205,N,11704.2419,W,1,07,1.0,144.1,M,-34.8,M,,0000*6C
$GPVTG,161.5,T,,M,000.0,N,000.0,K,A*0E
$GPGGA,223114.768,3246.6205,N,11704.2420,W,1,07,1.0,144.5,M,-34.8,M,,0000*65
$GPVTG,161.5,T,,M,000.0,N,000.0,K,A*0E
$GPGGA,223115.768,3246.6204,N,11704.2421,W,1,07,1.0,144.4,M,-34.8,M,,0000*65
$GPVTG,161.5,T,,M,000.0,N,000.0,K,A*0E
$GPGGA,223116.768,3246.6203,N,11704.2420,W,1,07,1.0,144.2,M,-34.8,M,,0000*66
