$GPGGA,222810.768,3246.6291,N,11704.1985,W,1,07,1.0,162.8,M,-34.8,M,,0000*6C
$GPVTG,121.0,T,,M,000.0,N,000.0,K,A*0F
$GPGGA,222811.768,3246.6292,N,11704.1985,W,1,07,1.0,162.8,M,-34.8,M,,0000*6E
$GPVTG,121.0,T,,M,000.0,N,000.0,K,A*0F
$GPGGA,222812.768,3246.6292,N,11704.1984,W,1,07,1.0,162.8,M,-34.8,M,,0000*6C
$GPVTG,121.0,T,,M,000.0,N,000.0,K,A*0F
$GPGGA,222813.768,3246.6293,N,11704.1984,W,1,07,1.0,162.9,M,-34.8,M,,0000*6D
$GPVTG,121.0,T,,M,000.0,N,000.0,K,A*0F
$GPGGA,222814.768,3246.6293,N,11704.1984,W,1,07,1.0,162.9,M,-34.8,M,,0000*6A
$GPVTG,121.0,T,,M,000.0,N,000.0,K,A*0F
$GPGGA,222815.768,3246.6293,N,11704.1984,W,1,07,1.0,162.9,M,-34.8,M,,0000*6B
$GPVTG,121.0,T,,M,000.0,N,000.0,K,A*0F
$GPGGA,222816.768,3246.6293,N,11704.1984,W,1,07,1.0,163.0,M,-34.8,M,,0000*60
$GPVTG,121.0,T,,M,000.0,N,000.0,K,A*0F
$GPGGA,222817.768,3246.6293,N,11704.1984,W,1,07,1.0,163.0,M,-34.8,M,,0000*61
$GPVTG,121.0,T,,M,000.0,N,000.0,K,A*0F
$GPGGA,222818.768,3246.6293,N,11704.1983,W,1,07,1.0,163.0,M,-34.8,M,,0000*69
$GPVTG,121.0,T,,M,000.0,N,000.0,K,A*0F
$GPGGA,222819.768,3246.6293,N,11704.1984,W,1,07,1.0,163.0,M,-34.8,M,,0000*6F
$GPVTG,302.4,T,,M,000.6,N,001.2,K,A*0D
$GPGGA,222820.768,3246.6293,N,11704.1988,W,1,07,1.0,163.0,M,-34.8,M,,0000*69
$GPVTG,254.6,T,,M,001.0,N,001.8,K,A*00
$GPGGA,222821.768,3246.6291,N,11704.1994,W,1,07,1.0,162.7,M,-34.8,M,,0000*61
$GPVTG,265.5,T,,M,001.1,N,002.0,K,A*0B
$GPGGA,222822.768,3246.6292,N,11704.2000,W,1,07,1.0,163.0,M,-34.8,M,,0000*60
$GPVTG,273.6,T,,M,001.4,N,002.6,K,A*0C
$GPGGA,222823.768,3246.6292,N,11704.2008,W,1,07,1.0,162.3,M,-34.8,M,,0000*6B
$GPVTG,273.0,T,,M,000.8,N,001.6,K,A*04
$GPGGA,222824.768,3246.6291,N,11704.2009,W,1,07,1.0,161.2,M,-34.8,M,,0000*6C
$GPVTG,267.1,T,,M,000.7,N,001.3,K,A*0A
$GPGGA,222825.768,3246.6292,N,11704.2014,W,1,07,1.0,161.2,M,-34.8,M,,0000*62
$GPVTG,296.9,T,,M,002.0,N,003.7,K,A*0F
$GPGGA,222826.768,3246.6296,N,11704.2024,W,1,07,1.0,162.5,M,-34.8,M,,0000*62
$GPVTG,295.6,T,,M,001.4,N,002.6,K,A*04
$GPGGA,222827.768,3246.6297,N,11704.2029,W,1,07,1.0,163.2,M,-34.8,M,,0000*69
$GPVTG,290.8,T,,M,001.6,N,003.0,K,A*0A
$GPGGA,222828.768,3246.6296,N,11704.2035,W,1,07,1.0,162.5,M,-34.8,M,,0000*6C
$GPVTG,275.5,T,,M,001.6,N,003.0,K,A*0C
$GPGGA,222829.768,3246.6297,N,11704.2043,W,1,07,1.0,164.0,M,-34.8,M,,0000*6E
$GPVTG,283.7,T,,M,001.9,N,003.5,K,A*0D
$GPGGA,222830.768,3246.6298,N,11704.2051,W,1,07,1.0,166.1,M,-34.8,M,,0000*69
$GPVTG,287.4,T,,M,002.1,N,003.8,K,A*0C
$GPGGA,222831.768,3246.6300,N,11704.2061,W,1,07,1.0,168.0,M,-34.8,M,,0000*64
$GPVTG,291.1,T,,M,000.9,N,001.7,K,A*09
$GPGGA,222832.768,3246.6300,N,11704.2063,W,1,07,1.0,167.7,M,-34.8,M,,0000*6D
$GPVTG,281.3,T,,M,000.9,N,001.6,K,A*0B
$GPGGA,222833.768,3246.6301,N,11704.2069,W,1,07,1.0,168.2,M,-34.8,M,,0000*6D
$GPVTG,280.9,T,,M,001.5,N,002.7,K,A*0F
$GPGGA,222834.768,3246.6300,N,11704.2078,W,1,07,1.0,168.6,M,-34.8,M,,0000*6F
$GPVTG,259.5,T,,M,001.0,N,001.8,K,A*0E
$GPGGA,222835.768,3246.6300,N,11704.2085,W,1,07,1.0,169.8,M,-34.8,M,,0000*63
$GPVTG,279.2,T,,M,001.7,N,003.1,K,A*07
$GPGGA,222836.768,3246.6300,N,11704.2091,W,1,07,1.0,169.5,M,-34.8,M,,0000*68
$GPVTG,270.9,T,,M,001.6,N,003.0,K,A*05
$GPGGA,222837.768,3246.6298,N,11704.2099,W,1,07,1.0,169.5,M,-34.8,M,,0000*61
$GPVTG,265.1,T,,M,000.9,N,001.7,K,A*02
$GPGGA,222838.768,3246.6298,N,11704.2102,W,1,07,1.0,170.0,M,-34.8,M,,0000*60
$GPVTG,283.1,T,,M,001.2,N,002.3,K,A*07
$GPGGA,222839.768,3246.6298,N,11704.2106,W,1,07,1.0,171.5,M,-34.8,M,,0000*61
$GPVTG,288.9,T,,M,001.6,N,002.9,K,A*0A
$GPGGA,222840.768,3246.6300,N,11704.2115,W,1,07,1.0,172.9,M,-34.8,M,,0000*62
$GPVTG,282.4,T,,M,000.9,N,001.7,K,A*0E
$GPGGA,222841.768,3246.6301,N,11704.2120,W,1,07,1.0,172.6,M,-34.8,M,,0000*6B
$GPVTG,271.8,T,,M,001.0,N,001.8,K,A*09
$GPGGA,222842.768,3246.6299,N,11704.2123,W,1,07,1.0,171.8,M,-34.8,M,,0000*66
$GPVTG,267.3,T,,M,001.3,N,002.4,K,A*09
$GPGGA,222843.768,3246.6297,N,11704.2129,W,1,07,1.0,170.6,M,-34.8,M,,0000*6C
$GPVTG,266.5,T,,M,000.7,N,001.2,K,A*0E
$GPGGA,222844.768,3246.6296,N,11704.2133,W,1,07,1.0,170.0,M,-34.8,M,,0000*67
$GPVTG,282.7,T,,M,000.7,N,001.3,K,A*07
$GPGGA,222845.768,3246.6297,N,11704.2138,W,1,07,1.0,170.3,M,-34.8,M,,0000*6F
$GPVTG,298.3,T,,M,001.0,N,001.8,K,A*05
$GPGGA,222846.768,3246.6296,N,11704.2140,W,1,07,1.0,169.1,M,-34.8,M,,0000*68
$GPVTG,294.4,T,,M,001.0,N,001.9,K,A*0F
$GPGGA,222847.768,3246.6297,N,11704.2144,W,1,07,1.0,168.3,M,-34.8,M,,0000*6F
$GPVTG,314.7,T,,M,000.6,N,001.2,K,A*09
$GPGGA,222848.768,3246.6298,N,11704.2146,W,1,07,1.0,166.2,M,-34.8,M,,0000*62
$GPVTG,305.7,T,,M,000.7,N,001.2,K,A*08
$GPGGA,222849.768,3246.6296,N,11704.2152,W,1,07,1.0,166.0,M,-34.8,M,,0000*6A
$GPVTG,279.4,T,,M,001.1,N,002.0,K,A*07
$GPGGA,222850.768,3246.6297,N,11704.2159,W,1,07,1.0,167.6,M,-34.8,M,,0000*6F
$GPVTG,284.1,T,,M,001.6,N,002.9,K,A*0E
$GPGGA,222851.768,3246.6297,N,11704.2164,W,1,07,1.0,167.6,M,-34.8,M,,0000*60
$GPVTG,277.7,T,,M,001.8,N,003.3,K,A*01
$GPGGA,222852.768,3246.6295,N,11704.2166,W,1,07,1.0,164.2,M,-34.8,M,,0000*64
$GPVTG,271.7,T,,M,001.6,N,002.9,K,A*02
$GPGGA,222853.768,3246.6292,N,11704.2169,W,1,07,1.0,162.5,M,-34.8,M,,0000*6C
$GPVTG,273.7,T,,M,001.5,N,002.8,K,A*02
$GPGGA,222854.768,3246.6293,N,11704.2177,W,1,07,1.0,161.8,M,-34.8,M,,0000*6B
$GPVTG,272.2,T,,M,001.0,N,001.8,K,A*00
$GPGGA,222855.768,3246.6291,N,11704.2180,W,1,07,1.0,159.5,M,-34.8,M,,0000*66
$GPVTG,273.2,T,,M,001.2,N,002.2,K,A*0A
$GPGGA,222856.768,3246.6289,N,11704.2187,W,1,07,1.0,157.8,M,-34.8,M,,0000*68
$GPVTG,264.9,T,,M,001.0,N,001.8,K,A*0C
$GPGGA,222857.768,3246.6286,N,11704.2189,W,1,07,1.0,155.1,M,-34.8,M,,0000*63
$GPVTG,253.4,T,,M,001.5,N,002.7,K,A*0C
$GPGGA,222858.768,3246.6286,N,11704.2196,W,1,07,1.0,153.7,M,-34.8,M,,0000*62
$GPVTG,290.2,T,,M,001.1,N,002.0,K,A*06
$GPGGA,222859.768,3246.6287,N,11704.2199,W,1,07,1.0,153.0,M,-34.8,M,,0000*6A
$GPVTG,295.6,T,,M,001.1,N,002.0,K,A*07
$GPGGA,222900.768,3246.6290,N,11704.2203,W,1,07,1.0,153.7,M,-34.8,M,,0000*66
$GPVTG,297.4,T,,M,001.6,N,002.9,K,A*09
$GPGGA,222901.768,3246.6289,N,11704.2207,W,1,07,1.0,153.3,M,-34.8,M,,0000*6F
$GPVTG,289.7,T,,M,001.4,N,002.7,K,A*09
$GPGGA,222902.768,3246.6287,N,11704.2215,W,1,07,1.0,153.6,M,-34.8,M,,0000*64
$GPVTG,277.1,T,,M,001.6,N,003.0,K,A*0A
$GPGGA,222903.768,3246.6286,N,11704.2221,W,1,07,1.0,152.8,M,-34.8,M,,0000*6C
$GPVTG,271.9,T,,M,001.5,N,002.8,K,A*0E
$GPGGA,222904.768,3246.6285,N,11704.2226,W,1,07,1.0,152.0,M,-34.8,M,,0000*67
$GPVTG,274.1,T,,M,001.6,N,003.0,K,A*09
$GPGGA,222905.768,3246.6284,N,11704.2235,W,1,07,1.0,151.2,M,-34.8,M,,0000*64
$GPVTG,279.4,T,,M,001.1,N,002.0,K,A*07
$GPGGA,222906.768,3246.6285,N,11704.2240,W,1,07,1.0,149.2,M,-34.8,M,,0000*6D
$GPVTG,302.7,T,,M,000.7,N,001.2,K,A*0F
$GPGGA,222907.768,3246.6285,N,11704.2244,W,1,07,1.0,149.3,M,-34.8,M,,0000*69
$GPVTG,286.0,T,,M,001.2,N,002.3,K,A*03
$GPGGA,222908.768,3246.6284,N,11704.2249,W,1,07,1.0,149.0,M,-34.8,M,,0000*69
$GPVTG,274.3,T,,M,001.5,N,002.8,K,A*01
$GPGGA,222909.768,3246.6282,N,11704.2258,W,1,07,1.0,148.2,M,-34.8,M,,0000*6D
$GPVTG,269.1,T,,M,001.1,N,002.0,K,A*03
$GPGGA,222910.768,3246.6281,N,11704.2263,W,1,07,1.0,147.1,M,-34.8,M,,0000*62
$GPVTG,282.7,T,,M,001.1,N,002.0,K,A*00
$GPGGA,222911.768,3246.6281,N,11704.2265,W,1,07,1.0,146.3,M,-34.8,M,,0000*66
$GPVTG,288.0,T,,M,001.0,N,001.9,K,A*06
$GPGGA,222912.768,3246.6279,N,11704.2270,W,1,07,1.0,145.4,M,-34.8,M,,0000*62
$GPVTG,268.9,T,,M,001.4,N,002.7,K,A*08
$GPGGA,222913.768,3246.6277,N,11704.2277,W,1,07,1.0,144.2,M,-34.8,M,,0000*6D
$GPVTG,268.0,T,,M,001.2,N,002.2,K,A*02
$GPGGA,222914.768,3246.6276,N,11704.2283,W,1,07,1.0,143.9,M,-34.8,M,,0000*6C
$GPVTG,266.6,T,,M,001.7,N,003.1,K,A*0D
$GPGGA,222915.768,3246.6276,N,11704.2289,W,1,07,1.0,144.4,M,-34.8,M,,0000*6D
$GPVTG,266.0,T,,M,001.8,N,003.4,K,A*01
$GPGGA,222916.768,3246.6275,N,11704.2298,W,1,07,1.0,144.6,M,-34.8,M,,0000*6F
$GPVTG,269.1,T,,M,001.2,N,002.2,K,A*02
$GPGGA,222917.768,3246.6275,N,11704.2305,W,1,07,1.0,144.1,M,-34.8,M,,0000*6C
$GPVTG,271.7,T,,M,001.2,N,002.3,K,A*0C
$GPGGA,222918.768,3246.6274,N,11704.2310,W,1,07,1.0,144.2,M,-34.8,M,,0000*65
$GPVTG,269.8,T,,M,001.5,N,002.9,K,A*07
$GPGGA,222919.768,3246.6273,N,11704.2315,W,1,07,1.0,143.7,M,-34.8,M,,0000*64
$GPVTG,265.4,T,,M,001.6,N,003.0,K,A*0C
$GPGGA,222920.768,3246.6271,N,11704.2320,W,1,07,1.0,143.2,M,-34.8,M,,0000*6F
$GPVTG,267.9,T,,M,001.5,N,002.8,K,A*09
$GPGGA,222921.768,3246.6269,N,11704.2323,W,1,07,1.0,141.4,M,-34.8,M,,0000*60
$GPVTG,261.0,T,,M,001.3,N,002.4,K,A*0C
$GPGGA,222922.768,3246.6269,N,11704.2327,W,1,07,1.0,141.0,M,-34.8,M,,0000*63
$GPVTG,264.8,T,,M,001.2,N,002.3,K,A*07
$GPGGA,222923.768,3246.6268,N,11704.2330,W,1,07,1.0,140.5,M,-34.8,M,,0000*61
$GPVTG,261.0,T,,M,001.2,N,002.2,K,A*0B
$GPGGA,222924.768,3246.6267,N,11704.2333,W,1,07,1.0,140.1,M,-34.8,M,,0000*6E
$GPVTG,258.3,T,,M,000.9,N,001.6,K,A*0F
$GPGGA,222925.768,3246.6268,N,11704.2335,W,1,07,1.0,140.0,M,-34.8,M,,0000*67
$GPVTG,258.3,T,,M,000.0,N,000.0,K,A*01
$GPGGA,222926.768,3246.6267,N,11704.2335,W,1,07,1.0,139.3,M,-34.8,M,,0000*66
$GPVTG,258.3,T,,M,000.0,N,000.0,K,A*01
$GPGGA,222927.768,3246.6266,N,11704.2336,W,1,07,1.0,139.5,M,-34.8,M,,0000*63
$GPVTG,258.3,T,,M,000.0,N,000.0,K,A*01
$GPGGA,222928.768,3246.6267,N,11704.2337,W,1,07,1.0,140.2,M,-34.8,M,,0000*65
$GPVTG,258.3,T,,M,000.0,N,000.0,K,A*01
$GPGGA,222929.768,3246.6267,N,11704.2337,W,1,07,1.0,140.6,M,-34.8,M,,0000*60
$GPVTG,258.3,T,,M,000.0,N,000.0,K,A*01
$GPGGA,222930.768,3246.6268,N,11704.2338,W,1,07,1.0,140.7,M,-34.8,M,,0000*69
$GPVTG,258.3,T,,M,000.0,N,000.0,K,A*01
$GPGGA,222931.768,3246.6267,N,11704.2338,W,1,07,1.0,140.8,M,-34.8,M,,0000*68
$GPVTG,258.3,T,,M,000.0,N,000.0,K,A*01
$GPGGA,222932.768,3246.6267,N,11704.2337,W,1,07,1.0,140.8,M,-34.8,M,,0000*64
$GPVTG,258.3,T,,M,000.0,N,000.0,K,A*01
$GPGGA,222933.768,3246.6267,N,11704.2338,W,1,07,1.0,141.1,M,-34.8,M,,0000*62
$GPVTG,258.3,T,,M,000.0,N,000.0,K,A*01
$GPGGA,222934.768,3246.6267,N,11704.2338,W,1,07,1.0,141.2,M,-34.8,M,,0000*66
$GPVTG,258.3,T,,M,000.0,N,000.0,K,A*01
$GPGGA,222935.768,3246.6267,N,11704.2338,W,1,07,1.0,141.3,M,-34.8,M,,0000*66
$GPVTG,258.3,T,,M,000.0,N,000.0,K,A*01
$GPGGA,222936.768,3246.6267,N,11704.2337,W,1,07,1.0,141.5,M,-34.8,M,,0000*6C
$GPVTG,258.3,T,,M,000.0,N,000.0,K,A*01
$GPGGA,222937.768,3246.6267,N,11704.2337,W,1,07,1.0,141.5,M,-34.8,M,,0000*6D
$GPVTG,258.3,T,,M,000.0,N,000.0,K,A*01
$GPGGA,222938.768,3246.6267,N,11704.2337,W,1,07,1.0,141.5,M,-34.8,M,,0000*62
$GPVTG,258.3,T,,M,000.0,N,000.0,K,A*01
$GPGGA,222939.768,3246.6267,N,11704.2336,W,1,07,1.0,141.5,M,-34.8,M,,0000*62
