$GPGGA,223239.768,3246.6333,N,11704.2538,W,1,07,1.0,144.2,M,-34.8,M,,0000*62
$GPVTG,354.7,T,,M,000.0,N,000.0,K,A*08
$GPGGA,223240.768,3246.6332,N,11704.2539,W,1,07,1.0,144.0,M,-34.8,M,,0000*6E
$GPVTG,354.7,T,,M,000.0,N,000.0,K,A*08
$GPGGA,223241.768,3246.6332,N,11704.2539,W,1,07,1.0,143.9,M,-34.8,M,,0000*61
$GPVTG,354.7,T,,M,000.0,N,000.0,K,A*08
$GPGGA,223242.768,3246.6332,N,11704.2539,W,1,07,1.0,143.9,M,-34.8,M,,0000*62
$GPVTG,354.7,T,,M,000.0,N,000.0,K,A*08
$GPGGA,223243.768,3246.6332,N,11704.2539,W,1,07,1.0,143.4,M,-34.8,M,,0000*6E
$GPVTG,354.7,T,,M,000.0,N,000.0,K,A*08
$GPGGA,223244.768,3246.6332,N,11704.2540,W,1,07,1.0,143.1,M,-34.8,M,,0000*62
$GPVTG,354.7,T,,M,000.0,N,000.0,K,A*08
$GPGGA,223245.768,3246.6333,N,11704.2540,W,1,07,1.0,142.9,M,-34.8,M,,0000*6B
$GPVTG,354.7,T,,M,000.0,N,000.0,K,A*08
$GPGGA,223246.768,3246.6333,N,11704.2538,W,1,07,1.0,142.2,M,-34.8,M,,0000*6C
$GPVTG,354.7,T,,M,000.0,N,000.0,K,A*08
$GPGGA,223247.768,3246.6334,N,11704.2538,W,1,07,1.0,141.9,M,-34.8,M,,0000*62
$GPVTG,111.1,T,,M,000.6,N,001.2,K,A*08
$GPGGA,223248.768,3246.6333,N,11704.2534,W,1,07,1.0,141.5,M,-34.8,M,,0000*6A
$GPVTG,081.2,T,,M,000.7,N,001.4,K,A*04
$GPGGA,223249.768,3246.6332,N,11704.2529,W,1,07,1.0,141.5,M,-34.8,M,,0000*66
$GPVTG,096.2,T,,M,001.1,N,002.0,K,A*02
$GPGGA,223250.768,3246.6331,N,11704.2522,W,1,07,1.0,141.2,M,-34.8,M,,0000*61
$GPVTG,106.1,T,,M,000.8,N,001.5,K,A*07
$GPGGA,223251.768,3246.6329,N,11704.2515,W,1,07,1.0,141.5,M,-34.8,M,,0000*6A
$GPVTG,102.2,T,,M,000.6,N,001.2,K,A*09
$GPGGA,223252.768,3246.6328,N,11704.2513,W,1,07,1.0,141.9,M,-34.8,M,,0000*62
$GPVTG,169.4,T,,M,000.6,N,001.1,K,A*01
$GPGGA,223253.768,3246.6332,N,11704.2506,W,1,07,1.0,142.7,M,-34.8,M,,0000*61
$GPVTG,067.9,T,,M,001.5,N,002.8,K,A*0B
$GPGGA,223254.768,3246.6336,N,11704.2499,W,1,06,1.7,143.1,M,-34.8,M,,0000*64
$GPVTG,068.5,T,,M,001.8,N,003.3,K,A*0F
$GPGGA,223255.768,3246.6337,N,11704.2494,W,1,07,1.0,143.7,M,-34.8,M,,0000*69
$GPVTG,071.7,T,,M,001.6,N,003.0,K,A*08
$GPGGA,223256.768,3246.6340,N,11704.2485,W,1,07,1.0,143.6,M,-34.8,M,,0000*6B
$GPVTG,074.9,T,,M,001.9,N,003.6,K,A*0A
$GPGGA,223257.768,3246.6342,N,11704.2480,W,1,07,1.0,144.5,M,-34.8,M,,0000*69
$GPVTG,075.4,T,,M,001.8,N,003.3,K,A*02
$GPGGA,223258.768,3246.6351,N,11704.2471,W,1,07,1.0,146.8,M,-34.8,M,,0000*65
$GPVTG,062.4,T,,M,001.9,N,003.5,K,A*03
$GPGGA,223259.768,3246.6353,N,11704.2468,W,1,07,1.0,146.7,M,-34.8,M,,0000*61
$GPVTG,058.5,T,,M,001.6,N,002.9,K,A*09
$GPGGA,223300.768,3246.6356,N,11704.2463,W,1,07,1.0,146.0,M,-34.8,M,,0000*65
$GPVTG,058.5,T,,M,000.0,N,000.0,K,A*05
$GPGGA,223301.768,3246.6357,N,11704.2463,W,1,07,1.0,146.0,M,-34.8,M,,0000*65
$GPVTG,058.5,T,,M,000.0,N,000.0,K,A*05
$GPGGA,223302.768,3246.6359,N,11704.2462,W,1,07,1.0,145.6,M,-34.8,M,,0000*6C
$GPVTG,353.0,T,,M,000.7,N,001.2,K,A*0C
$GPGGA,223303.768,3246.6364,N,11704.2464,W,1,07,1.0,146.6,M,-34.8,M,,0000*66
$GPVTG,350.3,T,,M,000.5,N,001.0,K,A*0C
$GPGGA,223304.768,3246.6366,N,11704.2464,W,1,07,1.0,146.8,M,-34.8,M,,0000*6D
$GPVTG,350.3,T,,M,000.0,N,000.0,K,A*08
$GPGGA,223305.768,3246.6367,N,11704.2464,W,1,07,1.0,146.7,M,-34.8,M,,0000*62
$GPVTG,350.3,T,,M,000.0,N,000.0,K,A*08
$GPGGA,223306.768,3246.6366,N,11704.2467,W,1,07,1.0,145.6,M,-34.8,M,,0000*61
$GPVTG,350.3,T,,M,000.0,N,000.0,K,A*08
$GPGGA,223307.768,3246.6365,N,11704.2469,W,1,07,1.0,144.7,M,-34.8,M,,0000*6D
$GPVTG,350.3,T,,M,000.0,N,000.0,K,A*08
$GPGGA,223308.768,3246.6366,N,11704.2470,W,1,07,1.0,144.6,M,-34.8,M,,0000*68
$GPVTG,299.9,T,,M,001.0,N,001.9,K,A*0F
$GPGGA,223309.768,3246.6369,N,11704.2474,W,1,07,1.0,144.4,M,-34.8,M,,0000*60
$GPVTG,312.6,T,,M,001.1,N,002.1,K,A*08
$GPGGA,223310.768,3246.6373,N,11704.2479,W,1,07,1.0,144.1,M,-34.8,M,,0000*6B
$GPVTG,318.4,T,,M,000.7,N,001.3,K,A*06
$GPGGA,223311.768,3246.6374,N,11704.2487,W,1,07,1.0,143.5,M,-34.8,M,,0000*6F
$GPVTG,275.2,T,,M,001.1,N,002.1,K,A*0C
$GPGGA,223312.768,3246.6376,N,11704.2494,W,1,07,1.0,143.3,M,-34.8,M,,0000*6A
$GPVTG,306.0,T,,M,000.9,N,001.6,K,A*06
$GPGGA,223313.768,3246.6378,N,11704.2496,W,1,07,1.0,142.4,M,-34.8,M,,0000*61
$GPVTG,316.5,T,,M,000.9,N,001.7,K,A*03
$GPGGA,223314.768,3246.6376,N,11704.2505,W,1,07,1.0,140.7,M,-34.8,M,,0000*62
$GPVTG,262.5,T,,M,001.2,N,002.2,K,A*0D
$GPGGA,223315.768,3246.6375,N,11704.2511,W,1,07,1.0,139.6,M,-34.8,M,,0000*6A
$GPVTG,268.9,T,,M,001.6,N,003.0,K,A*0C
$GPGGA,223316.768,3246.6371,N,11704.2524,W,1,07,1.0,138.6,M,-34.8,M,,0000*6A
$GPVTG,271.0,T,,M,001.3,N,002.4,K,A*0D
$GPGGA,223317.768,3246.6371,N,11704.2530,W,1,07,1.0,138.7,M,-34.8,M,,0000*6F
$GPVTG,275.1,T,,M,001.6,N,002.9,K,A*00
$GPGGA,223318.768,3246.6371,N,11704.2537,W,1,07,1.0,137.4,M,-34.8,M,,0000*6B
$GPVTG,277.4,T,,M,001.0,N,001.8,K,A*03
$GPGGA,223319.768,3246.6372,N,11704.2541,W,1,07,1.0,137.7,M,-34.8,M,,0000*6B
$GPVTG,287.5,T,,M,001.3,N,002.4,K,A*01
$GPGGA,223320.768,3246.6371,N,11704.2542,W,1,07,1.0,136.7,M,-34.8,M,,0000*60
$GPVTG,292.7,T,,M,000.6,N,001.1,K,A*05
$GPGGA,223321.768,3246.6373,N,11704.2543,W,1,07,1.0,137.3,M,-34.8,M,,0000*67
$GPVTG,292.7,T,,M,000.0,N,000.0,K,A*03
$GPGGA,223322.768,3246.6374,N,11704.2542,W,1,07,1.0,138.0,M,-34.8,M,,0000*6E
$GPVTG,292.7,T,,M,000.0,N,000.0,K,A*03
$GPGGA,223323.768,3246.6374,N,11704.2541,W,1,07,1.0,138.2,M,-34.8,M,,0000*6E
$GPVTG,292.7,T,,M,000.0,N,000.0,K,A*03
$GPGGA,223324.768,3246.6373,N,11704.2540,W,1,07,1.0,138.1,M,-34.8,M,,0000*6C
$GPVTG,292.7,T,,M,000.0,N,000.0,K,A*03
$GPGGA,223325.768,3246.6372,N,11704.2539,W,1,07,1.0,136.9,M,-34.8,M,,0000*64
$GPVTG,086.9,T,,M,000.8,N,001.4,K,A*07
$GPGGA,223326.768,3246.6372,N,11704.2534,W,1,07,1.0,136.4,M,-34.8,M,,0000*67
$GPVTG,098.2,T,,M,000.9,N,001.7,K,A*01
$GPGGA,223327.768,3246.6372,N,11704.2530,W,1,07,1.0,136.4,M,-34.8,M,,0000*62
$GPVTG,096.1,T,,M,001.0,N,001.9,K,A*0A
$GPGGA,223328.768,3246.6371,N,11704.2523,W,1,07,1.0,135.8,M,-34.8,M,,0000*63
$GPVTG,094.4,T,,M,000.8,N,001.5,K,A*08
$GPGGA,223329.768,3246.6371,N,11704.2517,W,1,07,1.0,135.4,M,-34.8,M,,0000*69
$GPVTG,085.7,T,,M,000.8,N,001.6,K,A*08
$GPGGA,223330.768,3246.6371,N,11704.2510,W,1,07,1.0,135.1,M,-34.8,M,,0000*63
$GPVTG,100.4,T,,M,000.9,N,001.6,K,A*06
$GPGGA,223331.768,3246.6372,N,11704.2504,W,1,07,1.0,134.6,M,-34.8,M,,0000*62
$GPVTG,093.3,T,,M,000.8,N,001.5,K,A*08
$GPGGA,223332.768,3246.6373,N,11704.2498,W,1,07,1.0,133.8,M,-34.8,M,,0000*6D
$GPVTG,083.3,T,,M,001.2,N,002.2,K,A*06
$GPGGA,223333.768,3246.6373,N,11704.2494,W,1,07,1.0,133.8,M,-34.8,M,,0000*60
$GPVTG,083.3,T,,M,000.0,N,000.0,K,A*05
$GPGGA,223334.768,3246.6376,N,11704.2490,W,1,07,1.0,133.7,M,-34.8,M,,0000*69
$GPVTG,074.8,T,,M,001.2,N,002.2,K,A*05
$GPGGA,223335.768,3246.6376,N,11704.2487,W,1,07,1.0,133.3,M,-34.8,M,,0000*6A
$GPVTG,076.2,T,,M,001.0,N,001.8,K,A*06
$GPGGA,223336.768,3246.6377,N,11704.2483,W,1,07,1.0,133.0,M,-34.8,M,,0000*6F
$GPVTG,076.2,T,,M,000.0,N,000.0,K,A*0E
$GPGGA,223337.768,3246.6414,N,11704.2463,W,1,07,1.0,143.3,M,-34.8,M,,0000*66
$GPVTG,357.9,T,,M,000.6,N,001.0,K,A*02
$GPGGA,223338.768,3246.6420,N,11704.2463,W,1,07,1.0,144.8,M,-34.8,M,,0000*62
$GPVTG,357.9,T,,M,000.0,N,000.0,K,A*05
$GPGGA,223339.768,3246.6423,N,11704.2463,W,1,07,1.0,145.5,M,-34.8,M,,0000*6C
$GPVTG,357.9,T,,M,000.0,N,000.0,K,A*05
$GPGGA,223340.768,3246.6424,N,11704.2464,W,1,07,1.0,145.7,M,-34.8,M,,0000*60
$GPVTG,357.9,T,,M,000.0,N,000.0,K,A*05
$GPGGA,223341.768,3246.6426,N,11704.2464,W,1,07,1.0,145.9,M,-34.8,M,,0000*6D
$GPVTG,357.9,T,,M,000.0,N,000.0,K,A*05
$GPGGA,223342.768,3246.6427,N,11704.2465,W,1,07,1.0,146.3,M,-34.8,M,,0000*67
$GPVTG,357.9,T,,M,000.0,N,000.0,K,A*05
$GPGGA,223343.768,3246.6427,N,11704.2465,W,1,07,1.0,146.2,M,-34.8,M,,0000*67
$GPVTG,300.7,T,,M,000.8,N,001.5,K,A*05
$GPGGA,223344.768,3246.6428,N,11704.2472,W,1,07,1.0,145.5,M,-34.8,M,,0000*6D
$GPVTG,278.9,T,,M,000.9,N,001.7,K,A*06
$GPGGA,223345.768,3246.6428,N,11704.2477,W,1,07,1.0,145.0,M,-34.8,M,,0000*6C
$GPVTG,276.7,T,,M,001.2,N,002.3,K,A*0B
$GPGGA,223346.768,3246.6430,N,11704.2483,W,1,07,1.0,143.6,M,-34.8,M,,0000*6D
$GPVTG,301.6,T,,M,000.6,N,001.2,K,A*0C
$GPGGA,223347.768,3246.6432,N,11704.2486,W,1,07,1.0,142.0,M,-34.8,M,,0000*6C
$GPVTG,307.4,T,,M,001.0,N,001.8,K,A*05
$GPGGA,223348.768,3246.6425,N,11704.2503,W,1,07,1.0,139.9,M,-34.8,M,,0000*6C
$GPVTG,255.7,T,,M,001.4,N,002.6,K,A*09
$GPGGA,223349.768,3246.6419,N,11704.2515,W,1,07,1.0,138.3,M,-34.8,M,,0000*6E
$GPVTG,255.7,T,,M,001.1,N,002.0,K,A*0A
$GPGGA,223350.768,3246.6415,N,11704.2522,W,1,07,1.0,138.0,M,-34.8,M,,0000*6D
$GPVTG,235.3,T,,M,001.4,N,002.5,K,A*08
$GPGGA,223351.768,3246.6411,N,11704.2528,W,1,06,1.7,139.1,M,-34.8,M,,0000*64
$GPVTG,235.3,T,,M,000.0,N,000.0,K,A*0A
$GPGGA,223352.768,3246.6412,N,11704.2530,W,1,07,1.0,139.7,M,-34.8,M,,0000*6D
$GPVTG,235.3,T,,M,000.0,N,000.0,K,A*0A
$GPGGA,223353.768,3246.6411,N,11704.2531,W,1,07,1.0,140.1,M,-34.8,M,,0000*66
$GPVTG,235.3,T,,M,000.0,N,000.0,K,A*0A
$GPGGA,223354.768,3246.6411,N,11704.2531,W,1,07,1.0,140.4,M,-34.8,M,,0000*64
$GPVTG,235.3,T,,M,000.0,N,000.0,K,A*0A
$GPGGA,223355.768,3246.6410,N,11704.2532,W,1,07,1.0,140.7,M,-34.8,M,,0000*64
$GPVTG,235.3,T,,M,000.0,N,000.0,K,A*0A
$GPGGA,223356.768,3246.6409,N,11704.2532,W,1,07,1.0,140.7,M,-34.8,M,,0000*6F
$GPVTG,035.4,T,,M,000.8,N,001.5,K,A*03
$GPGGA,223357.768,3246.6412,N,11704.2529,W,1,07,1.0,140.5,M,-34.8,M,,0000*6C
$GPVTG,039.0,T,,M,001.3,N,002.4,K,A*03
$GPGGA,223358.768,3246.6416,N,11704.2527,W,1,07,1.0,141.4,M,-34.8,M,,0000*69
$GPVTG,050.1,T,,M,001.5,N,002.8,K,A*07
$GPGGA,223359.768,3246.6420,N,11704.2521,W,1,07,1.0,141.3,M,-34.8,M,,0000*6C
$GPVTG,056.0,T,,M,000.6,N,001.2,K,A*0B
$GPGGA,223400.768,3246.6421,N,11704.2518,W,1,07,1.0,140.7,M,-34.8,M,,0000*69
$GPVTG,056.0,T,,M,000.0,N,000.0,K,A*0E
$GPGGA,223401.768,3246.6422,N,11704.2518,W,1,07,1.0,139.9,M,-34.8,M,,0000*6B
$GPVTG,056.0,T,,M,000.0,N,000.0,K,A*0E
$GPGGA,223402.768,3246.6422,N,11704.2518,W,1,07,1.0,140.0,M,-34.8,M,,0000*6F
$GPVTG,056.0,T,,M,000.0,N,000.0,K,A*0E
$GPGGA,223403.768,3246.6422,N,11704.2517,W,1,07,1.0,140.1,M,-34.8,M,,0000*60
$GPVTG,056.0,T,,M,000.0,N,000.0,K,A*0E
$GPGGA,223404.768,3246.6422,N,11704.2517,W,1,07,1.0,139.6,M,-34.8,M,,0000*6E
$GPVTG,056.0,T,,M,000.0,N,000.0,K,A*0E
$GPGGA,223405.768,3246.6422,N,11704.2516,W,1,07,1.0,139.3,M,-34.8,M,,0000*6B
$GPVTG,056.0,T,,M,000.0,N,000.0,K,A*0E
$GPGGA,223406.768,3246.6422,N,11704.2516,W,1,07,1.0,139.1,M,-34.8,M,,0000*6A
$GPVTG,056.0,T,,M,000.0,N,000.0,K,A*0E
$GPGGA,223407.768,3246.6422,N,11704.2516,W,1,07,1.0,138.8,M,-34.8,M,,0000*63
$GPVTG,056.0,T,,M,000.0,N,000.0,K,A*0E
$GPGGA,223408.768,3246.6422,N,11704.2515,W,1,07,1.0,138.7,M,-34.8,M,,0000*60
$GPVTG,056.0,T,,M,000.0,N,000.0,K,A*0E
$GPGGA,223409.768,3246.6423,N,11704.2515,W,1,07,1.0,138.7,M,-34.8,M,,0000*60
