.1,M,-34.8,M,,0000*67
$GPVTG,100.5,T,,M,000.0,N,000.0,K,A*09
$GPGGA,033838.396,3246.6243,N,11704.1949,W,1,09,1.1,136.2,M,-34.8,M,,0000*6A
$GPVTG,100.5,T,,M,000.0,N,000.0,K,A*09
$GPGGA,033839.396,3246.6243,N,11704.1949,W,1,09,1.1,136.2,M,-34.8,M,,0000*6B
$GPVTG,100.5,T,,M,000.0,N,000.0,K,A*09
$GPGGA,033840.396,3246.6242,N,11704.1949,W,1,09,1.1,136.3,M,-34.8,M,,0000*65
$GPVTG,100.5,T,,M,000.0,N,000.0,K,A*09
$GPGGA,033841.396,3246.6242,N,11704.1949,W,1,09,1.1,136.3,M,-34.8,M,,0000*64
$GPVTG,100.5,T,,M,000.0,N,000.0,K,A*09
$GPGGA,033842.396,3246.6242,N,11704.1949,W,1,09,1.1,136.4,M,-34.8,M,,0000*60
$GPVTG,100.5,T,,M,000.0,N,000.0,K,A*09
$GPGGA,033843.396,3246.6242,N,11704.1949,W,1,09,1.1,136.4,M,-34.8,M,,0000*61
$GPVTG,100.5,T,,M,000.0,N,000.0,K,A*09
$GPGGA,033844.396,3246.6242,N,11704.1949,W,1,09,1.1,136.2,M,-34.8,M,,0000*60
$GPVTG,100.5,T,,M,000.0,N,000.0,K,A*09
$GPGGA,033845.396,3246.6243,N,11704.1949,W,1,09,1.1,136.1,M,-34.8,M,,0000*63
$GPVTG,109.2,T,,M,000.6,N,001.0,K,A*00
$GPGGA,033846.396,3246.6243,N,11704.1947,W,1,09,1.1,136.3,M,-34.8,M,,0000*6C
$GPVTG,109.2,T,,M,000.0,N,000.0,K,A*07
$GPGGA,033847.396,3246.6244,N,11704.1946,W,1,09,1.1,136.3,M,-34.8,M,,0000*6B
$GPVTG,109.2,T,,M,000.0,N,000.0,K,A*07
$GPGGA,033848.396,3246.6244,N,11704.1945,W,1,09,1.1,136.4,M,-34.8,M,,0000*60
$GPVTG,109.2,T,,M,000.0,N,000.0,K,A*07
$GPGGA,033849.396,3246.6245,N,11704.1945,W,1,09,1.1,136.5,M,-34.8,M,,0000*61
$GPVTG,109.2,T,,M,000.0,N,000.0,K,A*07
$GPGGA,033850.396,3246.6244,N,11704.1943,W,1,09,1.1,137.2,M,-34.8,M,,0000*68
$GPVTG,109.2,T,,M,000.0,N,000.0,K,A*07
$GPGGA,033851.396,3246.6244,N,11704.1943,W,1,09,1.1,137.3,M,-34.8,M,,0000*68
$GPVTG,109.2,T,,M,000.0,N,000.0,K,A*07
$GPGGA,033852.396,3246.6245,N,11704.1941,W,1,09,1.1,137.5,M,-34.8,M,,0000*6E
$GPVTG,109.2,T,,M,000.0,N,000.0,K,A*07
$GPGGA,033853.396,3246.6245,N,11704.1941,W,1,09,1.1,137.6,M,-34.8,M,,0000*6C
$GPVTG,109.2,T,,M,000.0,N,000.0,K,A*07
$GPGGA,033854.396,3246.6245,N,11704.1941,W,1,07,1.3,137.6,M,-34.8,M,,0000*67
$GPVTG,109.2,T,,M,000.0,N,000.0,K,A*07
$GPGGA,033855.396,3246.6244,N,11704.1942,W,1,08,1.1,137.6,M,-34.8,M,,0000*69
$GPVTG,109.2,T,,M,000.0,N,000.0,K,A*07
$GPGGA,033856.396,3246.6244,N,11704.1942,W,1,08,1.1,137.6,M,-34.8,M,,0000*6A
$GPVTG,109.2,T,,M,000.0,N,000.0,K,A*07
$GPGGA,033857.396,3246.6245,N,11704.1941,W,1,08,1.1,137.8,M,-34.8,M,,0000*67
$GPVTG,109.2,T,,M,000.0,N,000.0,K,A*07
$GPGGA,033858.396,3246.6245,N,11704.1941,W,1,09,1.1,137.9,M,-34.8,M,,0000*68
$GPVTG,109.2,T,,M,000.0,N,000.0,K,A*07
$GPGGA,033859.396,3246.6245,N,11704.1941,W,1,09,1.1,137.9,M,-34.8,M,,0000*69
$GPVTG,109.2,T,,M,000.0,N,000.0,K,A*07
$GPGGA,033900.396,3246.6245,N,11704.1941,W,1,09,1.1,138.0,M,-34.8,M,,0000*62
$GPVTG,036.4,T,,M,000.6,N,001.2,K,A*09
$GPGGA,033901.396,3246.6247,N,11704.1940,W,1,09,1.1,136.9,M,-34.8,M,,0000*67
$GPVTG,313.0,T,,M,000.7,N,001.3,K,A*09
$GPGGA,033902.396,3246.6249,N,11704.1943,W,1,09,1.1,136.8,M,-34.8,M,,0000*68
$GPVTG,313.0,T,,M,000.0,N,000.0,K,A*0C
$GPGGA,033903.396,3246.6250,N,11704.1945,W,1,09,1.1,137.7,M,-34.8,M,,0000*69
$GPVTG,297.8,T,,M,001.2,N,002.3,K,A*0B
$GPGGA,033904.396,3246.6252,N,11704.1949,W,1,09,1.1,138.8,M,-34.8,M,,0000*60
$GPVTG,306.9,T,,M,001.8,N,003.3,K,A*08
$GPGGA,033905.396,3246.6256,N,11704.1952,W,1,09,1.1,138.7,M,-34.8,M,,0000*60
$GPVTG,316.5,T,,M,001.5,N,002.7,K,A*0D
$GPGGA,033906.396,3246.6261,N,11704.1959,W,1,09,1.1,139.5,M,-34.8,M,,0000*6F
$GPVTG,291.1,T,,M,000.8,N,001.5,K,A*0A
$GPGGA,033907.396,3246.6264,N,11704.1961,W,1,09,1.1,139.0,M,-34.8,M,,0000*65
$GPVTG,302.4,T,,M,001.1,N,001.9,K,A*00
$GPGGA,033908.396,3246.6274,N,11704.1963,W,1,09,1.1,137.0,M,-34.8,M,,0000*67
$GPVTG,312.9,T,,M,000.7,N,001.3,K,A*01
$GPGGA,033909.396,3246.6275,N,11704.1965,W,2,10,1.1,137.4,M,-34.8,M,,0000*6E
$GPVTG,285.6,T,,M,000.6,N,001.2,K,D*04
$GPGGA,033910.396,3246.6277,N,11704.1968,W,2,09,1.1,137.5,M,-34.8,M,,0000*60
$GPVTG,292.1,T,,M,000.7,N,001.2,K,D*04
$GPGGA,033911.396,3246.6278,N,11704.1970,W,1,08,1.1,137.1,M,-34.8,M,,0000*61
$GPVTG,295.1,T,,M,000.7,N,001.3,K,A*07
$GPGGA,033912.396,3246.6282,N,11704.1971,W,1,08,1.1,136.2,M,-34.8,M,,0000*64
$GPVTG,295.1,T,,M,000.0,N,000.0,K,A*02
$GPGGA,033913.396,3246.6286,N,11704.1971,W,1,08,1.1,134.9,M,-34.8,M,,0000*68
$GPVTG,269.2,T,,M,000.8,N,001.5,K,A*0E
$GPGGA,033914.396,3246.6287,N,11704.1975,W,1,08,1.1,134.8,M,-34.8,M,,0000*6B
$GPVTG,288.8,T,,M,000.7,N,001.2,K,A*03
$GPGGA,033915.396,3246.6289,N,11704.1977,W,1,08,1.1,133.8,M,-34.8,M,,0000*61
$GPVTG,289.6,T,,M,000.7,N,001.3,K,A*0D
$GPGGA,033916.396,3246.6292,N,11704.1981,W,1,07,1.2,132.6,M,-34.8,M,,0000*62
$GPVTG,289.6,T,,M,000.0,N,000.0,K,A*08
$GPGGA,033917.396,3246.6294,N,11704.1983,W,1,08,1.1,132.7,M,-34.8,M,,0000*6A
$GPVTG,285.3,T,,M,001.0,N,001.8,K,A*09
$GPGGA,033918.396,3246.6299,N,11704.1988,W,1,08,1.1,133.4,M,-34.8,M,,0000*61
$GPVTG,322.1,T,,M,000.7,N,001.3,K,A*0A
$GPGGA,033919.396,3246.6309,N,11704.1993,W,1,08,1.1,135.3,M,-34.8,M,,0000*63
$GPVTG,322.8,T,,M,001.8,N,003.3,K,A*0F
$GPGGA,033920.396,3246.6313,N,11704.1994,W,1,08,1.1,134.5,M,-34.8,M,,0000*62
$GPVTG,329.9,T,,M,001.4,N,002.7,K,A*0C
$GPGGA,033921.396,3246.6317,N,11704.1998,W,1,08,1.1,134.9,M,-34.8,M,,0000*67
$GPVTG,324.5,T,,M,001.5,N,002.9,K,A*02
$GPGGA,033922.396,3246.6322,N,11704.1999,W,1,07,1.2,134.5,M,-34.8,M,,0000*63
$GPVTG,336.0,T,,M,001.3,N,002.4,K,A*0F
$GPGGA,033923.396,3246.6324,N,11704.2002,W,1,08,1.1,134.2,M,-34.8,M,,0000*67
$GPVTG,333.9,T,,M,001.2,N,002.3,K,A*05
$GPGGA,033924.396,3246.6332,N,11704.2004,W,1,08,1.1,132.8,M,-34.8,M,,0000*6D
$GPVTG,333.9,T,,M,000.0,N,000.0,K,A*07
$GPGGA,033925.396,3246.6339,N,11704.2007,W,1,08,1.1,132.1,M,-34.8,M,,0000*6D
$GPVTG,331.1,T,,M,000.9,N,001.6,K,A*03
$GPGGA,033926.396,3246.6346,N,11704.2011,W,1,08,1.1,132.0,M,-34.8,M,,0000*60
$GPVTG,328.5,T,,M,001.2,N,002.2,K,A*02
$GPGGA,033927.396,3246.6356,N,11704.2016,W,1,08,1.1,132.0,M,-34.8,M,,0000*67
$GPVTG,318.0,T,,M,000.7,N,001.3,K,A*02
$GPGGA,033928.396,3246.6360,N,11704.2018,W,1,08,1.1,132.0,M,-34.8,M,,0000*63
$GPVTG,328.1,T,,M,000.8,N,001.4,K,A*08
$GPGGA,033929.396,3246.6365,N,11704.2020,W,1,08,1.1,131.8,M,-34.8,M,,0000*67
$GPVTG,328.1,T,,M,000.0,N,000.0,K,A*05
$GPGGA,033930.396,3246.6370,N,11704.2020,W,1,08,1.1,131.9,M,-34.8,M,,0000*6A
$GPVTG,328.1,T,,M,000.0,N,000.0,K,A*05
$GPGGA,033931.396,3246.6373,N,11704.2021,W,1,08,1.1,132.6,M,-34.8,M,,0000*65
$GPVTG,356.9,T,,M,000.5,N,001.0,K,A*00
$GPGGA,033932.396,3246.6378,N,11704.2021,W,1,08,1.1,132.6,M,-34.8,M,,0000*6D
$GPVTG,002.3,T,,M,001.0,N,001.8,K,A*04
$GPGGA,033933.396,3246.6383,N,11704.2021,W,1,08,1.1,133.3,M,-34.8,M,,0000*6C
$GPVTG,002.3,T,,M,000.0,N,000.0,K,A*0C
$GPGGA,033934.396,3246.6388,N,11704.2019,W,1,08,1.1,132.8,M,-34.8,M,,0000*61
$GPVTG,350.1,T,,M,000.7,N,001.2,K,A*0E
$GPGGA,033935.396,3246.6393,N,11704.2019,W,1,08,1.1,132.5,M,-34.8,M,,0000*67
$GPVTG,352.8,T,,M,001.0,N,001.8,K,A*09
$GPGGA,033936.396,3246.6399,N,11704.2017,W,1,08,1.1,133.0,M,-34.8,M,,0000*64
$GPVTG,350.6,T,,M,000.6,N,001.0,K,A*0A
$GPGGA,033937.396,3246.6414,N,11704.2012,W,1,08,1.1,133.4,M,-34.8,M,,0000*66
$GPVTG,350.6,T,,M,000.0,N,000.0,K,A*0D
$GPGGA,033938.396,3246.6423,N,11704.2009,W,1,07,1.2,133.1,M,-34.8,M,,0000*6E
$GPVTG,350.6,T,,M,000.0,N,000.0,K,A*0D
$GPGGA,033939.396,3246.6429,N,11704.2007,W,1,08,1.1,133.3,M,-34.8,M,,0000*65
$GPVTG,350.6,T,,M,000.0,N,000.0,K,A*0D
$GPGGA,033940.396,3246.6430,N,11704.2007,W,1,08,1.1,133.8,M,-34.8,M,,0000*68
$GPVTG,350.6,T,,M,000.0,N,000.0,K,A*0D
$GPGGA,033941.396,3246.6433,N,11704.2006,W,1,08,1.1,133.9,M,-34.8,M,,0000*6A
