$GPGGA,034011.396,3246.6444,N,11704.2006,W,1,08,1.1,129.9,M,-34.8,M,,0000*6A
$GPVTG,350.6,T,,M,000.0,N,000.0,K,A*0D
$GPGGA,034012.396,3246.6444,N,11704.2006,W,1,08,1.1,129.8,M,-34.8,M,,0000*68
$GPVTG,350.6,T,,M,000.0,N,000.0,K,A*0D
$GPGGA,034013.396,3246.6444,N,11704.2006,W,1,08,1.1,129.8,M,-34.8,M,,0000*69
$GPVTG,350.6,T,,M,000.0,N,000.0,K,A*0D
$GPGGA,034014.396,3246.6444,N,11704.2005,W,1,08,1.1,129.7,M,-34.8,M,,0000*62
$GPVTG,350.6,T,,M,000.0,N,000.0,K,A*0D
$GPGGA,034015.396,3246.6444,N,11704.2005,W,1,08,1.1,129.5,M,-34.8,M,,0000*61
$GPVTG,350.6,T,,M,000.0,N,000.0,K,A*0D
$GPGGA,034016.396,3246.6443,N,11704.2004,W,1,08,1.1,129.4,M,-34.8,M,,0000*65
$GPVTG,350.6,T,,M,000.0,N,000.0,K,A*0D
$GPGGA,034017.396,3246.6443,N,11704.2004,W,1,07,1.2,129.2,M,-34.8,M,,0000*6E
$GPVTG,350.6,T,,M,000.0,N,000.0,K,A*0D
$GPGGA,034018.396,3246.6443,N,11704.2004,W,1,07,1.2,129.2,M,-34.8,M,,0000*61
$GPVTG,350.6,T,,M,000.0,N,000.0,K,A*0D
$GPGGA,034019.396,3246.6443,N,11704.2004,W,1,07,1.2,129.0,M,-34.8,M,,0000*62
$GPVTG,350.6,T,,M,000.0,N,000.0,K,A*0D
$GPGGA,034020.396,3246.6443,N,11704.2004,W,1,07,1.2,128.9,M,-34.8,M,,0000*60
$GPVTG,350.6,T,,M,000.0,N,000.0,K,A*0D
$GPGGA,034021.396,3246.6443,N,11704.2004,W,1,07,1.2,129.1,M,-34.8,M,,0000*68
$GPVTG,350.6,T,,M,000.0,N,000.0,K,A*0D
$GPGGA,034022.396,3246.6444,N,11704.2004,W,1,06,1.3,129.1,M,-34.8,M,,0000*6C
$GPVTG,279.2,T,,M,000.6,N,001.1,K,A*05
$GPGGA,034023.396,3246.6444,N,11704.2007,W,1,07,1.2,129.3,M,-34.8,M,,0000*6C
$GPVTG,264.5,T,,M,000.7,N,001.3,K,A*0D
$GPGGA,034024.396,3246.6443,N,11704.2011,W,1,08,1.1,129.5,M,-34.8,M,,0000*61
$GPVTG,271.8,T,,M,000.8,N,001.6,K,A*0E
$GPGGA,034025.396,3246.6444,N,11704.2015,W,1,08,1.1,129.9,M,-34.8,M,,0000*6F
$GPVTG,277.5,T,,M,001.1,N,002.1,K,A*09
$GPGGA,034026.396,3246.6444,N,11704.2022,W,1,08,1.1,129.8,M,-34.8,M,,0000*69
$GPVTG,276.6,T,,M,000.7,N,001.4,K,A*0A
$GPGGA,034027.396,3246.6444,N,11704.2028,W,1,08,1.1,129.8,M,-34.8,M,,0000*62
$GPVTG,278.8,T,,M,001.0,N,001.8,K,A*00
$GPGGA,034028.396,3246.6445,N,11704.2032,W,1,08,1.1,130.1,M,-34.8,M,,0000*66
$GPVTG,270.7,T,,M,001.2,N,002.2,K,A*0C
$GPGGA,034029.396,3246.6445,N,11704.2041,W,1,08,1.1,130.3,M,-34.8,M,,0000*61
$GPVTG,266.5,T,,M,000.8,N,001.5,K,A*06
$GPGGA,034030.396,3246.6445,N,11704.2044,W,1,08,1.1,130.5,M,-34.8,M,,0000*6A
$GPVTG,270.8,T,,M,001.0,N,001.8,K,A*08
$GPGGA,034031.396,3246.6445,N,11704.2048,W,1,08,1.1,130.6,M,-34.8,M,,0000*64
$GPVTG,267.2,T,,M,001.3,N,002.4,K,A*08
$GPGGA,034032.396,3246.6446,N,11704.2054,W,1,08,1.1,130.7,M,-34.8,M,,0000*68
$GPVTG,268.3,T,,M,001.6,N,003.0,K,A*06
$GPGGA,034033.396,3246.6445,N,11704.2059,W,1,08,1.1,131.1,M,-34.8,M,,0000*60
$GPVTG,264.1,T,,M,001.6,N,003.0,K,A*08
$GPGGA,034034.396,3246.6444,N,11704.2068,W,1,08,1.1,131.7,M,-34.8,M,,0000*62
$GPVTG,269.8,T,,M,000.8,N,001.5,K,A*04
$GPGGA,034035.396,3246.6445,N,11704.2071,W,1,08,1.1,132.1,M,-34.8,M,,0000*6F
$GPVTG,265.2,T,,M,000.7,N,001.2,K,A*0A
$GPGGA,034036.396,3246.6445,N,11704.2072,W,1,08,1.1,132.4,M,-34.8,M,,0000*6A
$GPVTG,265.2,T,,M,000.0,N,000.0,K,A*0E
$GPGGA,034037.396,3246.6443,N,11704.2072,W,1,08,1.1,133.3,M,-34.8,M,,0000*6B
$GPVTG,265.2,T,,M,000.0,N,000.0,K,A*0E
$GPGGA,034038.396,3246.6443,N,11704.2071,W,1,08,1.1,133.6,M,-34.8,M,,0000*62
$GPVTG,265.2,T,,M,000.0,N,000.0,K,A*0E
$GPGGA,034039.396,3246.6442,N,11704.2071,W,1,08,1.1,133.7,M,-34.8,M,,0000*63
$GPVTG,265.2,T,,M,000.0,N,000.0,K,A*0E
$GPGGA,034040.396,3246.6442,N,11704.2071,W,1,08,1.1,133.9,M,-34.8,M,,0000*63
$GPVTG,265.2,T,,M,000.0,N,000.0,K,A*0E
$GPGGA,034041.396,3246.6441,N,11704.2071,W,1,08,1.1,133.8,M,-34.8,M,,0000*60
$GPVTG,265.2,T,,M,000.0,N,000.0,K,A*0E
$GPGGA,034042.396,3246.6441,N,11704.2071,W,1,08,1.1,134.0,M,-34.8,M,,0000*6C
$GPVTG,265.2,T,,M,000.0,N,000.0,K,A*0E
$GPGGA,034043.396,3246.6441,N,11704.2072,W,1,08,1.1,134.0,M,-34.8,M,,0000*6E
$GPVTG,265.2,T,,M,000.0,N,000.0,K,A*0E
$GPGGA,034044.396,3246.6441,N,11704.2073,W,1,08,1.1,133.8,M,-34.8,M,,0000*67
$GPVTG,265.2,T,,M,000.0,N,000.0,K,A*0E
$GPGGA,034045.396,3246.6440,N,11704.2073,W,1,08,1.1,133.7,M,-34.8,M,,0000*68
$GPVTG,265.2,T,,M,000.0,N,000.0,K,A*0E
$GPGGA,034046.396,3246.6440,N,11704.2074,W,1,08,1.1,133.9,M,-34.8,M,,0000*62
$GPVTG,265.2,T,,M,000.0,N,000.0,K,A*0E
$GPGGA,034047.396,3246.6440,N,11704.2074,W,1,08,1.1,133.7,M,-34.8,M,,0000*6D
$GPVTG,261.5,T,,M,001.1,N,002.0,K,A*0F
$GPGGA,034048.396,3246.6440,N,11704.2078,W,1,09,1.1,133.8,M,-34.8,M,,0000*60
$GPVTG,266.3,T,,M,001.3,N,002.4,K,A*08
$GPGGA,034049.396,3246.6439,N,11704.2087,W,1,09,1.1,133.8,M,-34.8,M,,0000*6F
$GPVTG,270.7,T,,M,001.1,N,002.0,K,A*0D
$GPGGA,034050.396,3246.6439,N,11704.2091,W,1,09,1.1,133.8,M,-34.8,M,,0000*60
$GPVTG,271.0,T,,M,001.4,N,002.6,K,A*08
$GPGGA,034051.396,3246.6441,N,11704.2098,W,1,09,1.1,133.2,M,-34.8,M,,0000*6D
$GPVTG,287.8,T,,M,000.7,N,001.3,K,A*0D
$GPGGA,034052.396,3246.6440,N,11704.2105,W,1,09,1.1,132.6,M,-34.8,M,,0000*6F
$GPVTG,266.8,T,,M,001.0,N,001.8,K,A*0F
$GPGGA,034053.396,3246.6441,N,11704.2110,W,1,09,1.1,132.3,M,-34.8,M,,0000*6E
$GPVTG,279.7,T,,M,001.3,N,002.4,K,A*02
$GPGGA,034054.396,3246.6442,N,11704.2119,W,1,09,1.1,132.5,M,-34.8,M,,0000*65
$GPVTG,276.2,T,,M,001.1,N,002.1,K,A*0F
$GPGGA,034055.396,3246.6442,N,11704.2124,W,1,09,1.1,132.4,M,-34.8,M,,0000*6B
$GPVTG,274.3,T,,M,001.5,N,002.8,K,A*01
$GPGGA,034056.396,3246.6444,N,11704.2129,W,1,09,1.1,132.2,M,-34.8,M,,0000*65
$GPVTG,274.2,T,,M,001.5,N,002.8,K,A*00
$GPGGA,034057.396,3246.6446,N,11704.2136,W,1,09,1.1,131.3,M,-34.8,M,,0000*6A
$GPVTG,287.9,T,,M,000.7,N,001.2,K,A*0D
$GPGGA,034058.396,3246.6446,N,11704.2141,W,1,10,0.9,131.2,M,-34.8,M,,0000*65
$GPVTG,280.9,T,,M,001.4,N,002.6,K,A*0F
$GPGGA,034059.396,3246.6446,N,11704.2151,W,1,10,0.9,131.8,M,-34.8,M,,0000*6F
$GPVTG,284.4,T,,M,001.2,N,002.2,K,A*04
$GPGGA,034100.396,3246.6449,N,11704.2156,W,1,10,0.9,131.5,M,-34.8,M,,0000*67
$GPVTG,283.4,T,,M,001.5,N,002.8,K,A*0E
$GPGGA,034101.396,3246.6451,N,11704.2166,W,1,10,0.9,132.4,M,-34.8,M,,0000*6E
$GPVTG,279.3,T,,M,001.1,N,002.0,K,A*00
$GPGGA,034102.396,3246.6451,N,11704.2171,W,2,11,0.9,131.6,M,-34.8,M,,0000*68
$GPVTG,278.0,T,,M,001.4,N,002.5,K,D*07
$GPGGA,034103.396,3246.6450,N,11704.2176,W,2,11,0.9,132.1,M,-34.8,M,,0000*6B
$GPVTG,274.7,T,,M,001.5,N,002.9,K,D*01
$GPGGA,034104.396,3246.6448,N,11704.2185,W,2,11,0.9,133.0,M,-34.8,M,,0000*69
$GPVTG,271.6,T,,M,000.9,N,001.7,K,D*05
$GPGGA,034105.396,3246.6449,N,11704.2190,W,2,11,0.9,132.5,M,-34.8,M,,0000*69
$GPVTG,271.6,T,,M,000.0,N,000.0,K,D*0A
$GPGGA,034106.397,3246.6449,N,11704.2191,W,2,11,0.9,132.5,M,-34.8,M,,0000*6A
$GPVTG,279.4,T,,M,001.2,N,002.2,K,D*03
$GPGGA,034107.397,3246.6449,N,11704.2196,W,2,11,0.9,131.8,M,-34.8,M,,0000*62
$GPVTG,284.1,T,,M,001.3,N,002.5,K,D*02
$GPGGA,034108.397,3246.6448,N,11704.2205,W,2,11,0.9,132.0,M,-34.8,M,,0000*6E
$GPVTG,268.9,T,,M,001.0,N,001.8,K,D*05
$GPGGA,034109.397,3246.6449,N,11704.2211,W,2,11,0.9,131.5,M,-34.8,M,,0000*6D
$GPVTG,284.5,T,,M,000.8,N,001.4,K,D*0E
$GPGGA,034109.397,3246.6449,N,11704.2217,W,2,11,0.9,131.6,M,-34.8,M,,0000*68
$GPVTG,284.6,T,,M,001.3,N,002.4,K,D*04
$GPGGA,034110.397,3246.6449,N,11704.2223,W,2,11,0.9,131.7,M,-34.8,M,,0000*66
$GPVTG,284.6,T,,M,000.0,N,000.0,K,D*00
$GPGGA,034111.397,3246.6450,N,11704.2224,W,2,11,0.9,131.5,M,-34.8,M,,0000*6A
$GPVTG,285.4,T,,M,000.7,N,001.4,K,D*01
$GPGGA,034112.397,3246.6452,N,11704.2230,W,2,11,0.9,131.3,M,-34.8,M,,0000*68
$GPVTG,280.3,T,,M,001.4,N,002.6,K,D*00
$GPGGA,034113.397,3246.6450,N,11704.2243,W,2,11,0.9,132.0,M,-34.8,M,,0000*6F
$GPVTG,273.3,T,,M,001.4,N,002.7,K,D*0D
$GPGGA,034114.397,3246.6449,N,11704.2248,W,2,11,0.9,132.5,M,-34.8,M,,0000*6E
$GPVTG,268.1,T,,M,001.5,N,002.7,K,D*04
$GPGGA,034115.397,3246.6449,N,11704.2258,W,2,11,0.9,133.3,M,-34.8,M,,0000*69
$GPVTG,279.2,T,,M,000.9,N,001.7,K,D*09
$GPGGA,034116.397,3246.6447,N,11704.2264,W,2,11,0.9,133.4,M,-34.8,M,,0000*6C
$GPVTG,274.0,T,,M,001.3,N,002.4,K,D*0D
$GPGGA,034117.397,3246.6446,N,11704.2271,W,2,11,0.9,132.9,M,-34.8,M,,0000*64
$GPVTG,273.4,T,,M,001.5,N,002.8,K,D*04
$GPGGA,034118.397,3246.6446,N,11704.2278,W,2,11,0.9,132.8,M,-34.8,M,,0000*63
$GPVTG,272.4,T,,M,000.7,N,001.3,K,D*0E
$GPGGA,034119.397,3246.6444,N,11704.2285,W,2,10,0.9,133.7,M,-34.8,M,,0000*6D
$GPVTG,267.4,T,,M,001.0,N,001.8,K,D*07
$GPGGA,034120.397,3246.6440,N,11704.2292,W,2,11,0.9,134.6,M,-34.8,M,,0000*62
$GPVTG,269.1,T,,M,001.6,N,002.9,K,D*08
$GPGGA,034121.397,3246.6441,N,11704.2299,W,2,11,0.9,135.1,M,-34.8,M,,0000*6F
$GPVTG,275.6,T,,M,001.8,N,003.3,K,D*07
$GPGGA,034122.397,3246.6441,N,11704.2303,W,2,11,0.9,135.7,M,-34.8,M,,0000*68
$GPVTG,273.0,T,,M,001.6,N,003.0,K,D*0A
$GPGGA,034123.397,3246.6440,N,11704.2310,W,2,11,0.9,135.3,M,-34.8,M,,0000*6E
$GPVTG,271.3,T,,M,000.6,N,001.2,K,D*0A
$GPGGA,034124.397,3246.6441,N,11704.2312,W,2,11,0.9,135.3,M,-34.8,M,,0000*6A
$GPVTG,268.2,T,,M,000.6,N,001.2,K,D*03
$GPGGA,034125.397,3246.6443,N,11704.2313,W,2,10,1.2,135.0,M,-34.8,M,,0000*60
$GPVTG,268.2,T,,M,000.0,N,000.0,K,D*06
$GPGGA,034126.397,3246.6444,N,11704.2313,W,2,10,1.2,135.2,M,-34.8,M,,0000*66
$GPVTG,268.2,T,,M,000.0,N,000.0,K,D*06
$GPGGA,034127.397,3246.6445,N,11704.2313,W,2,10,1.2,135.6,M,-34.8,M,,0000*62
$GPVTG,268.2,T,,M,000.0,N,000.0,K,D*06
$GPGGA,034128.397,3246.6446,N,11704.2312,W,2,10,1.2,136.0,M,-34.8,M,,0000*6A
$GPVTG,268.2,T,,M,000.0,N,000.0,K,D*06
$GPGGA,034129.397,3246.6447,N,11704.2311,W,2,10,1.2,136.2,M,-34.8,M,,0000*6B
$GPVTG,268.2,T,,M,000.0,N,000.0,K,D*06
$GPGGA,034130.397,3246.6448,N,11704.2312,W,2,10,1.2,136.3,M,-34.8,M,,0000*6E
$GPVTG,268.2,T,,M,000.0,N,000.0,K,D*06
$GPGGA,034131.397,3246.6447,N,11704.2312,W,2,10,1.2,136.7,M,-34.8,M,,0000*64
$GPVTG,268.2,T,,M,000.0,N,000.0,K,D*06
$GPGGA,034132.397,3246.6447,N,11704.2312,W,2,10,1.2,136.9,M,-34.8,M,,0000*69
$GPVTG,268.2,T,,M,000.0,N,000.0,K,D*06
$GPGGA,034133.397,3246.6447,N,11704.2312,W,2,10,1.2,137.0,M,-34.8,M,,0000*60
$GPVTG,268.2,T,,M,000.0,N,000.0,K,D*06
$GPGGA,034134.397,3246.6447,N,11704.2312,W,2,10,1.2,136.9,M,-34.8,M,,0000*6F
$GPVTG,268.2,T,,M,000.0,N,000.0,K,D*06
$GPGGA,034135.397,3246.6447,N,11704.2313,W,2,10,1.2,136.6,M,-34.8,M,,0000*60
$GPVTG,268.2,T,,M,000.0,N,000.0,K,D*06
$GPGGA,034136.397,3246.6447,N,11704.2314,W,2,10,1.2,136.5,M,-34.8,M,,0000*67
$GPVTG,268.2,T,,M,000.0,N,000.0,K,D*06
$GPGGA,034137.397,3246.6447,N,11704.2316,W,2,10,1.2,136.4,M,-34.8,M,,0000*65
$GPVTG,268.2,T,,M,000.0,N,000.0,K,D*06
$GPGGA,034138.397,3246.6446,N,11704.2317,W,2,10,1.2,136.5,M,-34.8,M,,0000*6B
$GPVTG,268.2,T,,M,000.0,N,000.0,K,D*06
$GPGGA,034139.397,3246.6444,N,11704.2318,W,2,09,1.5,136.7,M,-34.8,M,,0000*6A
