$GPGGA,034510.397,3246.6420,N,11704.2068,W,1,08,1.2,131.5,M,-34.8,M,,0000*63
$GPVTG,127.9,T,,M,000.0,N,000.0,K,A*00
$GPGGA,034511.397,3246.6420,N,11704.2067,W,1,08,1.2,131.5,M,-34.8,M,,0000*6D
$GPVTG,127.9,T,,M,000.0,N,000.0,K,A*00
$GPGGA,034512.397,3246.6420,N,11704.2067,W,1,08,1.2,131.5,M,-34.8,M,,0000*6E
$GPVTG,127.9,T,,M,000.0,N,000.0,K,A*00
$GPGGA,034513.397,3246.6420,N,11704.2067,W,1,08,1.2,131.5,M,-34.8,M,,0000*6F
$GPVTG,127.9,T,,M,000.0,N,000.0,K,A*00
$GPGGA,034514.397,3246.6420,N,11704.2067,W,1,08,1.2,131.5,M,-34.8,M,,0000*68
$GPVTG,127.9,T,,M,000.0,N,000.0,K,A*00
$GPGGA,034515.397,3246.6420,N,11704.2067,W,1,08,1.2,131.5,M,-34.8,M,,0000*69
$GPVTG,127.9,T,,M,000.0,N,000.0,K,A*00
$GPGGA,034516.397,3246.6420,N,11704.2067,W,1,08,1.2,131.4,M,-34.8,M,,0000*6B
$GPVTG,127.9,T,,M,000.0,N,000.0,K,A*00
$GPGGA,034517.397,3246.6420,N,11704.2067,W,1,08,1.2,131.3,M,-34.8,M,,0000*6D
$GPVTG,127.9,T,,M,000.0,N,000.0,K,A*00
$GPGGA,034518.397,3246.6420,N,11704.2068,W,1,08,1.2,131.1,M,-34.8,M,,0000*6F
$GPVTG,127.9,T,,M,000.0,N,000.0,K,A*00
$GPGGA,034519.397,3246.6420,N,11704.2068,W,1,08,1.2,131.0,M,-34.8,M,,0000*6F
$GPVTG,127.9,T,,M,000.0,N,000.0,K,A*00
$GPGGA,034520.397,3246.6420,N,11704.2067,W,1,08,1.2,131.0,M,-34.8,M,,0000*6A
$GPVTG,159.6,T,,M,000.9,N,001.6,K,A*08
$GPGGA,034521.397,3246.6416,N,11704.2064,W,1,08,1.2,130.7,M,-34.8,M,,0000*6B
$GPVTG,125.4,T,,M,001.0,N,001.9,K,A*06
$GPGGA,034522.397,3246.6412,N,11704.2058,W,1,08,1.2,130.8,M,-34.8,M,,0000*6C
$GPVTG,144.4,T,,M,000.9,N,001.6,K,A*06
$GPGGA,034523.397,3246.6407,N,11704.2054,W,1,08,1.2,130.9,M,-34.8,M,,0000*64
$GPVTG,145.0,T,,M,000.8,N,001.4,K,A*00
$GPGGA,034524.397,3246.6403,N,11704.2052,W,1,08,1.2,130.9,M,-34.8,M,,0000*61
$GPVTG,150.7,T,,M,001.2,N,002.2,K,A*0D
$GPGGA,034525.397,3246.6396,N,11704.2048,W,1,08,1.2,131.1,M,-34.8,M,,0000*69
$GPVTG,155.5,T,,M,000.9,N,001.6,K,A*07
$GPGGA,034526.397,3246.6391,N,11704.2045,W,1,09,1.1,130.9,M,-34.8,M,,0000*6B
$GPVTG,141.7,T,,M,000.8,N,001.5,K,A*02
$GPGGA,034527.397,3246.6383,N,11704.2043,W,1,09,1.1,131.2,M,-34.8,M,,0000*65
$GPVTG,160.7,T,,M,000.9,N,001.7,K,A*02
$GPGGA,034528.397,3246.6377,N,11704.2042,W,1,09,1.1,131.5,M,-34.8,M,,0000*67
$GPVTG,175.2,T,,M,000.7,N,001.4,K,A*0E
$GPGGA,034529.397,3246.6372,N,11704.2041,W,1,09,1.1,132.1,M,-34.8,M,,0000*67
$GPVTG,169.8,T,,M,000.6,N,001.1,K,A*0D
$GPGGA,034530.397,3246.6368,N,11704.2039,W,1,09,1.1,132.6,M,-34.8,M,,0000*6C
$GPVTG,160.3,T,,M,001.1,N,002.1,K,A*0A
$GPGGA,034531.397,3246.6365,N,11704.2037,W,1,09,1.1,132.8,M,-34.8,M,,0000*60
$GPVTG,152.7,T,,M,001.3,N,002.4,K,A*08
$GPGGA,034532.397,3246.6359,N,11704.2031,W,1,09,1.1,133.1,M,-34.8,M,,0000*62
$GPVTG,118.0,T,,M,000.8,N,001.5,K,A*09
$GPGGA,034533.397,3246.6355,N,11704.2026,W,1,09,1.1,133.0,M,-34.8,M,,0000*68
$GPVTG,135.9,T,,M,000.8,N,001.4,K,A*0E
$GPGGA,034534.397,3246.6352,N,11704.2024,W,1,09,1.1,132.8,M,-34.8,M,,0000*63
$GPVTG,126.4,T,,M,000.7,N,001.3,K,A*09
$GPGGA,034535.397,3246.6349,N,11704.2022,W,1,09,1.1,132.7,M,-34.8,M,,0000*61
$GPVTG,135.4,T,,M,001.2,N,002.1,K,A*0E
$GPGGA,034536.397,3246.6346,N,11704.2019,W,1,09,1.1,132.5,M,-34.8,M,,0000*67
$GPVTG,141.6,T,,M,001.4,N,002.7,K,A*0F
$GPGGA,034537.397,3246.6343,N,11704.2016,W,1,09,1.1,133.0,M,-34.8,M,,0000*68
$GPVTG,139.3,T,,M,001.4,N,002.5,K,A*07
$GPGGA,034538.397,3246.6336,N,11704.2010,W,1,09,1.1,132.8,M,-34.8,M,,0000*6A
$GPVTG,130.2,T,,M,000.9,N,001.7,K,A*02
$GPGGA,034539.397,3246.6336,N,11704.2006,W,1,09,1.1,133.7,M,-34.8,M,,0000*62
$GPVTG,130.2,T,,M,000.0,N,000.0,K,A*0D
$GPGGA,034540.397,3246.6335,N,11704.2004,W,1,09,1.1,133.4,M,-34.8,M,,0000*6E
$GPVTG,110.1,T,,M,000.9,N,001.7,K,A*03
$GPGGA,034541.397,3246.6333,N,11704.2002,W,1,09,1.1,132.7,M,-34.8,M,,0000*6D
$GPVTG,113.7,T,,M,000.9,N,001.6,K,A*07
$GPGGA,034542.397,3246.6327,N,11704.2000,W,1,09,1.1,132.9,M,-34.8,M,,0000*67
$GPVTG,162.7,T,,M,000.7,N,001.4,K,A*0D
$GPGGA,034543.397,3246.6325,N,11704.1997,W,1,09,1.1,133.5,M,-34.8,M,,0000*6D
$GPVTG,139.4,T,,M,000.9,N,001.7,K,A*0D
$GPGGA,034544.397,3246.6318,N,11704.1993,W,1,09,1.1,133.9,M,-34.8,M,,0000*6C
$GPVTG,136.7,T,,M,000.8,N,001.5,K,A*02
$GPGGA,034545.397,3246.6312,N,11704.1991,W,1,09,1.1,134.5,M,-34.8,M,,0000*6E
$GPVTG,167.3,T,,M,000.7,N,001.3,K,A*0B
$GPGGA,034546.397,3246.6309,N,11704.1988,W,1,09,1.1,134.2,M,-34.8,M,,0000*68
$GPVTG,153.9,T,,M,001.0,N,001.8,K,A*0B
$GPGGA,034547.397,3246.6304,N,11704.1983,W,1,09,1.1,134.3,M,-34.8,M,,0000*6E
$GPVTG,142.1,T,,M,001.5,N,002.8,K,A*05
$GPGGA,034548.397,3246.6302,N,11704.1978,W,1,09,1.1,134.2,M,-34.8,M,,0000*62
$GPVTG,136.4,T,,M,001.4,N,002.6,K,A*0C
$GPGGA,034549.397,3246.6298,N,11704.1975,W,1,09,1.1,134.9,M,-34.8,M,,0000*67
$GPVTG,136.4,T,,M,000.0,N,000.0,K,A*0D
$GPGGA,034550.397,3246.6298,N,11704.1973,W,1,08,1.1,134.8,M,-34.8,M,,0000*69
$GPVTG,126.4,T,,M,000.9,N,001.7,K,A*03
$GPGGA,034551.397,3246.6292,N,11704.1970,W,1,08,1.1,134.2,M,-34.8,M,,0000*6B
$GPVTG,126.4,T,,M,000.0,N,000.0,K,A*0C
$GPGGA,034552.397,3246.6289,N,11704.1971,W,1,10,0.9,133.5,M,-34.8,M,,0000*63
$GPVTG,126.4,T,,M,000.0,N,000.0,K,A*0C
$GPGGA,034553.397,3246.6287,N,11704.1974,W,1,09,1.1,132.7,M,-34.8,M,,0000*6B
$GPVTG,126.4,T,,M,000.0,N,000.0,K,A*0C
$GPGGA,034554.397,3246.6286,N,11704.1975,W,1,09,1.1,132.1,M,-34.8,M,,0000*6A
$GPVTG,126.4,T,,M,000.0,N,000.0,K,A*0C
$GPGGA,034555.397,3246.6283,N,11704.1975,W,1,10,0.9,132.1,M,-34.8,M,,0000*6F
$GPVTG,126.4,T,,M,000.0,N,000.0,K,A*0C
$GPGGA,034556.397,3246.6280,N,11704.1976,W,1,10,0.9,132.0,M,-34.8,M,,0000*6D
$GPVTG,126.4,T,,M,000.0,N,000.0,K,A*0C
$GPGGA,034557.397,3246.6279,N,11704.1976,W,1,10,0.9,131.9,M,-34.8,M,,0000*60
$GPVTG,126.4,T,,M,000.0,N,000.0,K,A*0C
$GPGGA,034558.397,3246.6278,N,11704.1976,W,1,10,0.9,131.9,M,-34.8,M,,0000*6E
$GPVTG,126.4,T,,M,000.0,N,000.0,K,A*0C
$GPGGA,034559.397,3246.6277,N,11704.1977,W,1,09,0.9,131.9,M,-34.8,M,,0000*69
$GPVTG,126.4,T,,M,000.0,N,000.0,K,A*0C
$GPGGA,034600.397,3246.6277,N,11704.1976,W,1,10,0.9,131.9,M,-34.8,M,,0000*6F
$GPVTG,126.4,T,,M,000.0,N,000.0,K,A*0C
$GPGGA,034601.397,3246.6278,N,11704.1975,W,1,10,0.9,132.0,M,-34.8,M,,0000*68
$GPVTG,126.4,T,,M,000.0,N,000.0,K,A*0C
$GPGGA,034602.397,3246.6279,N,11704.1974,W,1,10,0.9,132.2,M,-34.8,M,,0000*69
$GPVTG,126.4,T,,M,000.0,N,000.0,K,A*0C
$GPGGA,034603.397,3246.6280,N,11704.1973,W,1,10,0.9,132.4,M,-34.8,M,,0000*6F
$GPVTG,126.4,T,,M,000.0,N,000.0,K,A*0C
$GPGGA,034604.397,3246.6281,N,11704.1972,W,1,10,0.9,132.6,M,-34.8,M,,0000*6A
$GPVTG,126.4,T,,M,000.0,N,000.0,K,A*0C
$GPGGA,034605.397,3246.6281,N,11704.1972,W,1,10,0.9,132.9,M,-34.8,M,,0000*64
$GPVTG,126.4,T,,M,000.0,N,000.0,K,A*0C
$GPGGA,034606.397,3246.6282,N,11704.1971,W,1,10,0.9,133.1,M,-34.8,M,,0000*6E
$GPVTG,126.4,T,,M,000.0,N,000.0,K,A*0C
$GPGGA,034607.397,3246.6283,N,11704.1970,W,1,10,0.9,133.3,M,-34.8,M,,0000*6D
$GPVTG,126.4,T,,M,000.0,N,000.0,K,A*0C
$GPGGA,034608.397,3246.6283,N,11704.1970,W,1,10,0.9,133.6,M,-34.8,M,,0000*67
$GPVTG,126.4,T,,M,000.0,N,000.0,K,A*0C
$GPGGA,034609.397,3246.6284,N,11704.1969,W,1,10,0.9,133.8,M,-34.8,M,,0000*67
$GPVTG,126.4,T,,M,000.0,N,000.0,K,A*0C
$GPGGA,034610.397,3246.6284,N,11704.1968,W,1,10,0.9,134.0,M,-34.8,M,,0000*61
$GPVTG,126.4,T,,M,000.0,N,000.0,K,A*0C
$GPGGA,034611.397,3246.6284,N,11704.1968,W,1,10,0.9,134.0,M,-34.8,M,,0000*60
$GPVTG,126.4,T,,M,000.0,N,000.0,K,A*0C
$GPGGA,034612.397,3246.6285,N,11704.1967,W,1,10,0.9,134.1,M,-34.8,M,,0000*6C
$GPVTG,126.4,T,,M,000.0,N,000.0,K,A*0C
$GPGGA,034613.397,3246.6285,N,11704.1967,W,1,10,0.9,134.1,M,-34.8,M,,0000*6D
$GPVTG,126.4,T,,M,000.0,N,000.0,K,A*0C
$GPGGA,034614.397,3246.6286,N,11704.1966,W,1,10,0.9,134.1,M,-34.8,M,,0000*68
$GPVTG,126.4,T,,M,000.0,N,000.0,K,A*0C
$GPGGA,034615.397,3246.6286,N,11704.1965,W,1,10,0.9,134.3,M,-34.8,M,,0000*68
