$GPGGA,035512.398,3246.6334,N,11704.2533,W,1,08,1.0,147.4,M,-34.8,M,,0000*64
$GPVTG,054.4,T,,M,000.0,N,000.0,K,A*08
$GPGGA,035513.398,3246.6333,N,11704.2534,W,1,08,1.0,146.0,M,-34.8,M,,0000*60
$GPVTG,054.4,T,,M,000.0,N,000.0,K,A*08
$GPGGA,035514.398,3246.6332,N,11704.2535,W,1,08,1.0,145.1,M,-34.8,M,,0000*65
$GPVTG,054.4,T,,M,000.0,N,000.0,K,A*08
$GPGGA,035515.398,3246.6332,N,11704.2535,W,1,08,1.0,144.2,M,-34.8,M,,0000*66
$GPVTG,054.4,T,,M,000.0,N,000.0,K,A*08
$GPGGA,035516.398,3246.6335,N,11704.2534,W,1,08,1.0,143.9,M,-34.8,M,,0000*6F
$GPVTG,054.4,T,,M,000.0,N,000.0,K,A*08
$GPGGA,035517.398,3246.6335,N,11704.2534,W,1,08,1.0,143.8,M,-34.8,M,,0000*6F
$GPVTG,054.4,T,,M,000.0,N,000.0,K,A*08
$GPGGA,035518.398,3246.6336,N,11704.2534,W,1,08,1.0,143.8,M,-34.8,M,,0000*63
$GPVTG,054.4,T,,M,000.0,N,000.0,K,A*08
$GPGGA,035519.398,3246.6338,N,11704.2533,W,1,09,0.9,143.7,M,-34.8,M,,0000*6D
$GPVTG,054.4,T,,M,000.0,N,000.0,K,A*08
$GPGGA,035520.398,3246.6339,N,11704.2533,W,1,09,0.9,143.5,M,-34.8,M,,0000*64
$GPVTG,054.4,T,,M,000.0,N,000.0,K,A*08
$GPGGA,035521.398,3246.6341,N,11704.2532,W,1,09,0.9,143.2,M,-34.8,M,,0000*6C
$GPVTG,054.4,T,,M,000.0,N,000.0,K,A*08
$GPGGA,035522.398,3246.6344,N,11704.2532,W,1,09,0.9,143.1,M,-34.8,M,,0000*69
$GPVTG,054.4,T,,M,000.0,N,000.0,K,A*08
$GPGGA,035523.398,3246.6345,N,11704.2532,W,1,09,0.9,143.3,M,-34.8,M,,0000*6B
$GPVTG,245.0,T,,M,001.5,N,002.9,K,A*01
$GPGGA,035524.398,3246.6340,N,11704.2539,W,1,09,0.9,138.1,M,-34.8,M,,0000*6C
$GPVTG,227.5,T,,M,003.1,N,005.8,K,A*00
$GPGGA,035525.398,3246.6340,N,11704.2539,W,1,08,1.0,133.8,M,-34.8,M,,0000*66
$GPVTG,210.0,T,,M,001.5,N,002.8,K,A*00
$GPGGA,035526.398,3246.6336,N,11704.2542,W,1,08,1.0,129.5,M,-34.8,M,,0000*6E
$GPVTG,210.0,T,,M,000.8,N,001.4,K,A*03
$GPGGA,035527.398,3246.6336,N,11704.2539,W,1,08,1.0,130.0,M,-34.8,M,,0000*6E
$GPVTG,082.8,T,,M,001.7,N,003.1,K,A*0B
$GPGGA,035528.398,3246.6340,N,11704.2530,W,1,08,1.0,131.3,M,-34.8,M,,0000*6B
$GPVTG,075.7,T,,M,002.3,N,004.2,K,A*0F
$GPGGA,035529.398,3246.6340,N,11704.2520,W,1,08,1.0,133.3,M,-34.8,M,,0000*69
$GPVTG,075.7,T,,M,000.0,N,000.0,K,A*08
$GPGGA,035530.398,3246.6337,N,11704.2519,W,1,07,1.6,133.5,M,-34.8,M,,0000*64
$GPVTG,122.5,T,,M,001.0,N,001.9,K,A*00
$GPGGA,035531.398,3246.6337,N,11704.2516,W,1,08,1.0,134.5,M,-34.8,M,,0000*64
$GPVTG,098.1,T,,M,000.8,N,001.5,K,A*01
$GPGGA,035532.398,3246.6337,N,11704.2515,W,1,07,1.6,136.4,M,-34.8,M,,0000*6E
$GPVTG,043.2,T,,M,000.9,N,001.6,K,A*06
$GPGGA,035533.398,3246.6323,N,11704.2516,W,1,07,1.6,141.7,M,-34.8,M,,0000*6A
$GPVTG,067.4,T,,M,000.6,N,001.1,K,A*0E
$GPGGA,035534.398,3246.6320,N,11704.2517,W,1,08,1.2,147.0,M,-34.8,M,,0000*65
$GPVTG,067.4,T,,M,000.0,N,000.0,K,A*08
$GPGGA,035535.398,3246.6288,N,11704.2527,W,1,09,0.9,145.9,M,-34.8,M,,0000*64
$GPVTG,233.6,T,,M,004.2,N,007.8,K,A*00
$GPGGA,035536.398,3246.6270,N,11704.2544,W,1,08,1.2,156.1,M,-34.8,M,,0000*64
$GPVTG,235.3,T,,M,006.4,N,011.8,K,A*00
$GPGGA,035537.398,3246.6262,N,11704.2559,W,1,08,1.2,163.2,M,-34.8,M,,0000*6F
$GPVTG,235.5,T,,M,006.3,N,011.7,K,A*0E
$GPGGA,035538.398,3246.6243,N,11704.2579,W,1,08,1.2,173.0,M,-34.8,M,,0000*62
$GPVTG,231.5,T,,M,007.7,N,014.3,K,A*0E
$GPGGA,035539.398,3246.6234,N,11704.2591,W,1,08,1.2,177.1,M,-34.8,M,,0000*60
$GPVTG,224.3,T,,M,008.0,N,014.9,K,A*0E
$GPGGA,035540.398,3246.6222,N,11704.2601,W,1,07,1.3,180.8,M,-34.8,M,,0000*6C
$GPVTG,222.7,T,,M,007.5,N,013.9,K,A*01
$GPGGA,035541.398,3246.6196,N,11704.2610,W,1,07,1.3,190.5,M,-34.8,M,,0000*6D
$GPVTG,210.5,T,,M,008.1,N,015.0,K,A*06
$GPGGA,035542.398,3246.6168,N,11704.2629,W,1,07,1.3,199.5,M,-34.8,M,,0000*6C
$GPVTG,210.3,T,,M,009.5,N,017.6,K,A*01
$GPGGA,035543.398,3246.6143,N,11704.2647,W,1,07,1.3,208.4,M,-34.8,M,,0000*66
$GPVTG,211.4,T,,M,009.6,N,017.7,K,A*05
$GPGGA,035544.398,3246.6121,N,11704.2662,W,1,07,1.3,216.2,M,-34.8,M,,0000*6B
$GPVTG,210.0,T,,M,009.6,N,017.8,K,A*0F
$GPGGA,035545.398,3246.6098,N,11704.2677,W,1,07,1.3,224.5,M,-34.8,M,,0000*6B
$GPVTG,210.0,T,,M,000.0,N,000.0,K,A*0E
$GPGGA,035546.398,3246.6096,N,11704.2674,W,1,07,1.3,223.9,M,-34.8,M,,0000*6E
$GPVTG,210.0,T,,M,000.0,N,000.0,K,A*0E
$GPGGA,035547.398,3246.6092,N,11704.2675,W,1,07,1.3,224.0,M,-34.8,M,,0000*64
$GPVTG,206.6,T,,M,000.6,N,001.0,K,A*08
$GPGGA,035548.398,3246.6090,N,11704.2676,W,1,07,1.3,224.1,M,-34.8,M,,0000*6B
$GPVTG,191.8,T,,M,001.0,N,001.9,K,A*05
$GPGGA,035549.398,3246.6096,N,11704.2673,W,1,07,1.3,221.9,M,-34.8,M,,0000*64
$GPVTG,191.8,T,,M,000.0,N,000.0,K,A*0C
$GPGGA,035550.398,3246.6108,N,11704.2668,W,1,07,1.3,220.1,M,-34.8,M,,0000*69
$GPVTG,053.7,T,,M,001.0,N,001.8,K,A*04
$GPGGA,035551.398,3246.6121,N,11704.2666,W,1,07,1.3,214.5,M,-34.8,M,,0000*6E
$GPVTG,005.6,T,,M,002.2,N,004.0,K,A*0A
$GPGGA,035552.398,3246.6129,N,11704.2666,W,1,07,1.3,211.1,M,-34.8,M,,0000*64
$GPVTG,358.0,T,,M,003.2,N,006.0,K,A*04
$GPGGA,035553.398,3246.6137,N,11704.2666,W,1,07,1.3,209.2,M,-34.8,M,,0000*60
$GPVTG,354.0,T,,M,002.8,N,005.2,K,A*02
$GPGGA,035554.398,3246.6141,N,11704.2665,W,1,07,1.3,208.3,M,-34.8,M,,0000*65
$GPVTG,349.0,T,,M,002.5,N,004.6,K,A*06
$GPGGA,035555.398,3246.6143,N,11704.2665,W,1,07,1.3,208.8,M,-34.8,M,,0000*6D
$GPVTG,336.3,T,,M,002.1,N,003.9,K,A*01
$GPGGA,035556.398,3246.6145,N,11704.2664,W,1,07,1.3,208.9,M,-34.8,M,,0000*68
$GPVTG,319.7,T,,M,001.5,N,002.8,K,A*0F
$GPGGA,035557.398,3246.6148,N,11704.2666,W,1,07,1.3,209.3,M,-34.8,M,,0000*6D
$GPVTG,289.5,T,,M,001.2,N,002.3,K,A*09
$GPGGA,035558.398,3246.6154,N,11704.2667,W,1,09,0.9,209.4,M,-34.8,M,,0000*6C
$GPVTG,289.4,T,,M,001.5,N,002.7,K,A*0B
$GPGGA,035559.398,3246.6162,N,11704.2661,W,1,09,0.9,209.1,M,-34.8,M,,0000*6B
$GPVTG,306.3,T,,M,001.3,N,002.3,K,A*08
$GPGGA,035600.398,3246.6168,N,11704.2655,W,1,09,0.9,209.8,M,-34.8,M,,0000*60
$GPVTG,295.2,T,,M,000.6,N,001.1,K,A*07
$GPGGA,035601.398,3246.6167,N,11704.2657,W,1,08,0.9,212.5,M,-34.8,M,,0000*6A
$GPVTG,238.5,T,,M,001.5,N,002.7,K,A*00
$GPGGA,035602.398,3246.6177,N,11704.2656,W,1,08,0.9,212.1,M,-34.8,M,,0000*6D
$GPVTG,229.7,T,,M,001.7,N,003.1,K,A*07
$GPGGA,035603.398,3246.6178,N,11704.2662,W,1,08,0.9,213.6,M,-34.8,M,,0000*62
$GPVTG,235.6,T,,M,002.0,N,003.6,K,A*08
$GPGGA,035604.398,3246.6187,N,11704.2656,W,1,08,0.9,214.0,M,-34.8,M,,0000*63
$GPVTG,229.2,T,,M,000.7,N,001.2,K,A*02
$GPGGA,035605.398,3246.6188,N,11704.2660,W,1,08,0.9,216.5,M,-34.8,M,,0000*6F
$GPVTG,229.2,T,,M,000.0,N,000.0,K,A*06
$GPGGA,035606.398,3246.6211,N,11704.2635,W,1,09,0.9,206.9,M,-34.8,M,,0000*63
$GPVTG,252.9,T,,M,001.9,N,003.5,K,A*0F
$GPGGA,035607.398,3246.6239,N,11704.2618,W,1,09,0.9,196.6,M,-34.8,M,,0000*62
$GPVTG,025.4,T,,M,000.6,N,001.1,K,A*08
$GPGGA,035608.398,3246.6272,N,11704.2594,W,1,09,0.9,186.3,M,-34.8,M,,0000*61
$GPVTG,025.4,T,,M,000.0,N,000.0,K,A*0E
$GPGGA,035609.398,3246.6287,N,11704.2583,W,1,09,0.9,179.8,M,-34.8,M,,0000*67
$GPVTG,025.4,T,,M,000.0,N,000.0,K,A*0E
$GPGGA,035610.398,3246.6290,N,11704.2581,W,1,09,0.9,178.3,M,-34.8,M,,0000*61
$GPVTG,086.2,T,,M,000.7,N,001.3,K,A*04
$GPGGA,035611.398,3246.6291,N,11704.2576,W,1,09,0.9,177.0,M,-34.8,M,,0000*65
$GPVTG,086.2,T,,M,000.0,N,000.0,K,A*01
$GPGGA,035612.398,3246.6291,N,11704.2576,W,1,08,1.1,176.5,M,-34.8,M,,0000*6A
$GPVTG,253.7,T,,M,001.2,N,002.1,K,A*0E
$GPGGA,035613.398,3246.6294,N,11704.2574,W,1,09,0.9,174.5,M,-34.8,M,,0000*66
$GPVTG,076.0,T,,M,001.2,N,002.2,K,A*0F
$GPGGA,035614.398,3246.6296,N,11704.2567,W,1,09,0.9,174.5,M,-34.8,M,,0000*61
$GPVTG,091.2,T,,M,002.3,N,004.3,K,A*01
$GPGGA,035615.398,3246.6298,N,11704.2557,W,1,09,0.9,176.3,M,-34.8,M,,0000*69
$GPVTG,095.1,T,,M,003.5,N,006.4,K,A*04
$GPGGA,035616.398,3246.6296,N,11704.2541,W,1,08,0.9,176.5,M,-34.8,M,,0000*64
$GPVTG,118.5,T,,M,003.7,N,006.8,K,A*0A
$GPGGA,035617.398,3246.6289,N,11704.2530,W,1,08,0.9,175.1,M,-34.8,M,,0000*6A
$GPVTG,152.3,T,,M,005.4,N,010.0,K,A*08
$GPGGA,035618.398,3246.6299,N,11704.2521,W,1,08,0.9,171.8,M,-34.8,M,,0000*69
$GPVTG,048.5,T,,M,001.3,N,002.3,K,A*07
$GPGGA,035619.398,3246.6312,N,11704.2516,W,1,08,0.9,168.0,M,-34.8,M,,0000*6E
$GPVTG,057.6,T,,M,002.1,N,004.0,K,A*0E
$GPGGA,035620.398,3246.6320,N,11704.2504,W,1,08,0.9,163.5,M,-34.8,M,,0000*68
$GPVTG,114.2,T,,M,002.9,N,005.4,K,A*01
$GPGGA,035621.398,3246.6311,N,11704.2519,W,1,08,0.9,171.4,M,-34.8,M,,0000*65
$GPVTG,211.6,T,,M,006.8,N,012.6,K,A*02
$GPGGA,035622.398,3246.6295,N,11704.2538,W,1,08,0.9,179.5,M,-34.8,M,,0000*61
$GPVTG,211.6,T,,M,000.0,N,000.0,K,A*09
$GPGGA,035623.398,3246.6299,N,11704.2539,W,1,08,0.9,177.1,M,-34.8,M,,0000*67
$GPVTG,211.6,T,,M,000.0,N,000.0,K,A*09
$GPGGA,035624.398,3246.6299,N,11704.2542,W,1,08,0.9,176.1,M,-34.8,M,,0000*6D
$GPVTG,211.6,T,,M,000.0,N,000.0,K,A*09
$GPGGA,035625.398,3246.6300,N,11704.2542,W,1,08,0.9,175.0,M,-34.8,M,,0000*6F
$GPVTG,211.6,T,,M,000.0,N,000.0,K,A*09
$GPGGA,035626.398,3246.6301,N,11704.2543,W,1,09,0.9,174.0,M,-34.8,M,,0000*6C
$GPVTG,211.6,T,,M,000.0,N,000.0,K,A*09
$GPGGA,035627.398,3246.6307,N,11704.2544,W,1,09,0.9,172.9,M,-34.8,M,,0000*63
$GPVTG,211.6,T,,M,000.0,N,000.0,K,A*09
$GPGGA,035628.398,3246.6305,N,11704.2545,W,1,08,0.9,171.8,M,-34.8,M,,0000*6C
$GPVTG,211.6,T,,M,000.0,N,000.0,K,A*09
$GPGGA,035629.398,3246.6304,N,11704.2544,W,1,08,0.9,171.8,M,-34.8,M,,0000*6D
$GPVTG,249.2,T,,M,000.7,N,001.2,K,A*04
$GPGGA,035630.398,3246.6308,N,11704.2549,W,1,08,0.9,173.3,M,-34.8,M,,0000*6D
$GPVTG,283.6,T,,M,001.8,N,003.3,K,A*0B
$GPGGA,035631.398,3246.6308,N,11704.2550,W,1,09,0.9,177.4,M,-34.8,M,,0000*66
$GPVTG,194.6,T,,M,002.1,N,003.9,K,A*0E
$GPGGA,035632.398,3246.6297,N,11704.2556,W,1,09,0.9,180.7,M,-34.8,M,,0000*6F
$GPVTG,206.4,T,,M,004.1,N,007.6,K,A*09
$GPGGA,035633.398,3246.6286,N,11704.2562,W,1,09,0.9,185.2,M,-34.8,M,,0000*69
$GPVTG,205.1,T,,M,004.4,N,008.2,K,A*01
$GPGGA,035634.398,3246.6278,N,11704.2572,W,1,09,0.9,188.6,M,-34.8,M,,0000*67
$GPVTG,215.0,T,,M,005.0,N,009.2,K,A*05
$GPGGA,035635.398,3246.6269,N,11704.2573,W,1,09,0.9,195.0,M,-34.8,M,,0000*6D
$GPVTG,204.4,T,,M,003.6,N,006.7,K,A*0B
$GPGGA,035636.398,3246.6252,N,11704.2582,W,1,09,0.9,202.7,M,-34.8,M,,0000*62
$GPVTG,197.7,T,,M,005.0,N,009.2,K,A*0B
$GPGGA,035637.398,3246.6231,N,11704.2598,W,1,09,0.9,211.8,M,-34.8,M,,0000*60
$GPVTG,204.5,T,,M,006.3,N,011.6,K,A*0D
$GPGGA,035638.398,3246.6209,N,11704.2618,W,1,09,0.9,221.6,M,-34.8,M,,0000*62
$GPVTG,208.1,T,,M,007.5,N,013.9,K,A*0F
$GPGGA,035639.398,3246.6201,N,11704.2622,W,1,09,0.9,228.1,M,-34.8,M,,0000*6C
$GPVTG,208.1,T,,M,000.0,N,000.0,K,A*06
$GPGGA,035640.398,3246.6207,N,11704.2625,W,1,08,1.2,226.4,M,-34.8,M,,0000*63
$GPVTG,208.1,T,,M,000.0,N,000.0,K,A*06
$GPGGA,035641.398,3246.6214,N,11704.2622,W,1,09,0.9,223.9,M,-34.8,M,,0000*64
$GPVTG,208.1,T,,M,000.0,N,000.0,K,A*06
$GPGGA,035642.398,3246.6220,N,11704.2619,W,1,09,0.9,221.4,M,-34.8,M,,0000*67
$GPVTG,208.1,T,,M,000.0,N,000.0,K,A*06
$GPGGA,035643.398,3246.6225,N,11704.2617,W,1,09,0.9,219.0,M,-34.8,M,,0000*62
$GPVTG,208.1,T,,M,000.0,N,000.0,K,A*06
$GPGGA,035644.398,3246.6233,N,11704.2611,W,1,09,0.9,214.7,M,-34.8,M,,0000*6E
$GPVTG,208.1,T,,M,000.0,N,000.0,K,A*06
$GPGGA,035645.398,3246.6235,N,11704.2618,W,1,09,0.9,213.0,M,-34.8,M,,0000*60
$GPVTG,208.1,T,,M,000.0,N,000.0,K,A*06
$GPGGA,035646.398,3246.6236,N,11704.2623,W,1,08,0.9,211.4,M,-34.8,M,,0000*6F
$GPVTG,208.1,T,,M,000.0,N,000.0,K,A*06
$GPGGA,035647.398,3246.6238,N,11704.2624,W,1,09,0.9,211.0,M,-34.8,M,,0000*62
$GPVTG,051.8,T,,M,000.6,N,001.0,K,A*06
$GPGGA,035648.398,3246.6239,N,11704.2623,W,1,09,0.9,211.0,M,-34.8,M,,0000*6B
$GPVTG,051.8,T,,M,000.0,N,000.0,K,A*01
$GPGGA,035649.398,3246.6246,N,11704.2624,W,1,09,0.9,210.3,M,-34.8,M,,0000*67
$GPVTG,051.8,T,,M,000.0,N,000.0,K,A*01
$GPGGA,035650.398,3246.6246,N,11704.2626,W,1,09,0.9,209.8,M,-34.8,M,,0000*6E
$GPVTG,051.8,T,,M,000.0,N,000.0,K,A*01
$GPGGA,035651.398,3246.6248,N,11704.2627,W,1,09,0.9,208.9,M,-34.8,M,,0000*60
$GPVTG,095.1,T,,M,000.6,N,001.1,K,A*06
$GPGGA,035652.398,3246.6255,N,11704.2620,W,1,08,1.2,208.0,M,-34.8,M,,0000*6A
$GPVTG,073.0,T,,M,001.1,N,001.9,K,A*01
$GPGGA,035653.398,3246.6258,N,11704.2616,W,1,08,1.2,207.4,M,-34.8,M,,0000*68
$GPVTG,072.7,T,,M,001.2,N,002.2,K,A*0C
$GPGGA,035654.398,3246.6264,N,11704.2610,W,1,08,1.2,205.8,M,-34.8,M,,0000*68
$GPVTG,059.2,T,,M,000.9,N,001.6,K,A*0D
$GPGGA,035655.398,3246.6273,N,11704.2602,W,1,08,1.2,203.6,M,-34.8,M,,0000*64
$GPVTG,059.2,T,,M,000.0,N,000.0,K,A*03
$GPGGA,035656.398,3246.6277,N,11704.2600,W,1,08,1.2,202.5,M,-34.8,M,,0000*63
$GPVTG,059.2,T,,M,000.0,N,000.0,K,A*03
$GPGGA,035657.398,3246.6281,N,11704.2596,W,1,08,1.2,201.4,M,-34.8,M,,0000*65
$GPVTG,059.2,T,,M,000.0,N,000.0,K,A*03
$GPGGA,035658.398,3246.6282,N,11704.2597,W,1,08,1.2,200.7,M,-34.8,M,,0000*6A
$GPVTG,059.2,T,,M,000.0,N,000.0,K,A*03
$GPGGA,035659.398,3246.6283,N,11704.2598,W,1,08,1.2,200.3,M,-34.8,M,,0000*61
$GPVTG,059.2,T,,M,000.0,N,000.0,K,A*03
$GPGGA,035700.398,3246.6291,N,11704.2592,W,1,08,1.2,198.0,M,-34.8,M,,0000*64
